     3.01           OBSERVATION DATA    G (GPS)             RINEX VERSION / TYPE
Convert 2.6.5       NovAtel             20201104 134846 UTC PGM / RUN BY / DATE 
RINEX Version 3.01 Observation File                         COMMENT             
                                                            MARKER NAME         
                                                            MARKER NUMBER       
                                                            OBSERVER / AGENCY   
                    NovAtel GPSCard                         REC # / TYPE / VERS 
                                                            ANT # / TYPE        
        0.0000        0.0000        0.0000                  APPROX POSITION XYZ 
        0.0000        0.0000        0.0000                  ANTENNA: DELTA H/E/N
G   12 C1C L1C D1C S1C C2W L2W D2W S2W C2S L2S D2S S2S      SYS / # / OBS TYPES 
DBHZ                                                        SIGNAL STRENGTH UNIT
     1.000                                                  INTERVAL            
  2020     6    11    13    26   17.0000000     GPS         TIME OF FIRST OBS   
  2020     6    11    13    39    3.0000000     GPS         TIME OF LAST OBS    
G L1C  0.00000  11 G20 G27 G10 G18 G07 G11 G26 G15 G08 G16  SYS / PHASE SHIFTS  
                   G21                                      SYS / PHASE SHIFTS  
G L2W  0.00000  11 G20 G27 G10 G18 G07 G11 G26 G15 G08 G16  SYS / PHASE SHIFTS  
                   G21                                      SYS / PHASE SHIFTS  
G L2S -0.25000  07 G27 G10 G18 G07 G26 G15 G08              SYS / PHASE SHIFTS  
Leap Seconds Unknown                                        COMMENT             
                                                            END OF HEADER       
> 2020 06 11 13 26 17.0000000  0 11      -0.000000000000
G20  21282963.466 7 111842725.714 7        34.521          45.916    21282962.359 7  87150176.472 7        26.900          44.795                                                                  
G27  20475365.095 8 107598770.710 8      1016.712          48.433    20475366.111 8  83843197.232 8       792.244          48.591    20475366.642 8  83843199.234 8       792.244          50.659  
G10  22107144.376 7 116173831.899 7      2337.608          47.264    22107145.608 7  90525069.095 7      1821.514          47.096    22107145.441 8  90525071.103 8      1821.514          48.086  
G18  22882303.029 7 120247286.637 7     -3105.513          44.962    22882302.110 7  93699197.824 7     -2419.881          42.195    22882302.601 7  93699193.828 7     -2419.881          46.396  
G07  24438196.383 6 128423597.095 6       785.313          39.918    24438196.910 6 100070335.101 6       611.934          39.433    24438197.466 7 100070336.105 7       611.934          44.848  
G11  24680155.229 7 129695107.966 7      3515.495          43.218    24680156.918 5 101061111.640 5      2739.346          34.030                                                                  
G26  22463634.791 7 118047179.509 7     -3266.008          42.011    22463636.144 6  91984826.971 6     -2544.940          41.752    22463636.285 7  91984804.982 7     -2544.939          45.108  
G15  24870166.914 7 130693597.403 7       695.448          43.366    24870166.736 7 101839175.651 7       541.909          43.096    24870167.078 6 101839188.662 6       541.907          38.676  
G08  22302643.651 6 117201187.754 6      2633.638          41.079    22302646.193 6  91325601.654 6      2052.186          40.954    22302647.073 8  91325611.658 8      2052.187          48.034  
G16  20708202.788 7 108822334.368 7     -1502.430          44.585    20708201.196 7  84796620.845 7     -1170.724          44.404                                                                  
G21  21686924.642 7 113965554.454 7     -1923.314          44.625    21686923.593 7  88804326.561 7     -1498.687          44.010                                                                  
> 2020 06 11 13 26 18.0000000  0 11      -0.000000000000
G20  21282956.939 7 111842691.368 7        34.376          47.943    21282955.838 7  87150149.710 7        26.788          43.632                                                                  
G27  20475171.605 8 107597753.911 8      1016.893          50.056    20475172.621 8  83842404.921 8       792.384          50.524    20475173.153 8  83842406.922 8       792.384          50.666  
G10  22106699.552 8 116171494.317 8      2337.650          49.094    22106700.778 8  90523247.603 8      1821.547          49.047    22106700.622 8  90523249.608 8      1821.546          48.150  
G18  22882893.987 7 120250392.132 7     -3105.163          46.965    22882893.067 6  93701617.691 6     -2419.607          39.588    22882893.564 7  93701613.693 7     -2419.608          46.312  
G07  24438046.884 7 128422811.508 7       785.666          42.421    24438047.416 6 100069722.953 6       612.208          41.313    24438047.960 7 100069723.958 7       612.209          44.774  
G11  24679486.192 7 129691592.131 7      3515.902          45.665    24679487.935 5 101058372.025 5      2739.665          31.551                                                                  
G26  22464256.242 7 118050445.305 7     -3265.531          44.378    22464257.600 7  91987371.749 7     -2544.570          44.197    22464257.739 7  91987349.760 7     -2544.569          45.303  
G15  24870034.592 7 130692901.971 7       695.643          45.553    24870034.417 7 101838633.755 7       542.060          43.218    24870034.728 6 101838646.768 6       542.060          37.939  
G08  22302142.454 7 117198554.068 7      2634.007          43.411    22302145.013 7  91323549.430 7      2052.473          43.367    22302145.890 7  91323559.434 7      2052.474          47.895  
G16  20708488.702 7 108823836.825 7     -1502.618          46.687    20708487.115 7  84797791.591 7     -1170.871          43.425                                                                  
G21  21687290.613 7 113967477.648 7     -1922.848          46.747    21687289.557 7  88805825.151 7     -1498.323          42.939                                                                  
> 2020 06 11 13 26 19.0000000  0 11      -0.000000000000
G20  21282950.468 7 111842657.347 7        33.634          47.103    21282949.368 7  87150123.200 7        26.209          44.009                                                                  
G27  20474978.129 8 107596737.178 8      1016.527          49.576    20474979.144 8  83841612.660 8       792.099          49.653    20474979.680 8  83841614.662 8       792.099          50.629  
G10  22106254.768 8 116169156.885 8      2337.117          48.558    22106255.984 8  90521426.227 8      1821.131          48.310    22106255.829 8  90521428.230 8      1821.130          48.151  
G18  22883484.912 7 120253497.491 7     -3105.515          46.338    22883483.983 6  93704037.450 6     -2419.883          40.787    22883484.496 7  93704033.449 7     -2419.883          46.162  
G07  24437897.422 6 128422026.207 6       784.985          41.731    24437897.972 6 100069111.031 6       611.678          40.684    24437898.514 7 100069112.035 7       611.677          44.607  
G11  24678817.095 7 129688075.991 7      3516.233          44.897    24678818.877 5 101055632.177 5      2739.921          31.279                                                                  
G26  22464877.692 7 118053711.086 7     -3265.873          43.562    22464879.041 7  91989916.511 7     -2544.837          43.288    22464879.189 7  91989894.522 7     -2544.836          45.261  
G15  24869902.320 7 130692206.803 7       694.969          44.797    24869902.156 7 101838092.063 7       541.535          43.689    24869902.369 6 101838105.075 6       541.533          38.121  
G08  22301641.236 7 117195920.271 7      2633.686          42.566    22301643.811 7  91321497.119 7      2052.223          42.546    22301644.688 7  91321507.124 7      2052.224          47.833  
G16  20708774.664 7 108825339.530 7     -1503.063          45.948    20708773.070 7  84798962.529 7     -1171.218          44.749                                                                  
G21  21687656.587 7 113969400.796 7     -1923.407          46.187    21687655.526 7  88807323.705 7     -1498.760          43.579                                                                  
> 2020 06 11 13 26 20.0000000  0 11      -0.000000000000
G20  21282944.153 7 111842624.065 7        32.817          46.613    21282943.034 7  87150097.267 7        25.572          44.831                                                                  
G27  20474784.738 8 107595720.941 8      1015.866          48.984    20474785.758 8  83840820.787 8       791.584          49.046    20474786.296 8  83840822.789 8       791.584          50.538  
G10  22105810.079 7 116166820.011 7      2336.552          47.843    22105811.291 7  90519605.286 7      1820.691          47.741    22105811.137 8  90519607.287 8      1820.690          48.216  
G18  22884075.895 7 120256603.104 7     -3105.685          45.568    22884074.970 6  93706457.404 6     -2420.016          41.786    22884075.483 7  93706453.406 7     -2420.016          46.021  
G07  24437748.090 6 128421241.590 6       783.932          40.950    24437748.644 6 100068499.638 6       610.856          40.543    24437749.209 7 100068500.647 7       610.857          44.298  
G11  24678148.044 7 129684560.043 7      3515.691          44.210    24678149.821 5 101052892.484 5      2739.502          33.519                                                                  
G26  22465499.217 7 118056977.233 7     -3266.489          42.768    22465500.566 7  91992461.557 7     -2545.317          42.430    22465500.702 7  91992439.568 7     -2545.317          45.122  
G15  24869770.182 7 130691512.315 7       694.066          44.136    24869770.005 7 101837550.909 7       540.832          44.044    24869770.166 6 101837563.914 6       540.829          37.908  
G08  22301140.087 6 117193286.761 6      2632.985          41.810    22301142.664 7  91319445.033 7      2051.677          42.012    22301143.556 7  91319455.038 7      2051.677          47.662  
G16  20709060.754 7 108826842.924 7     -1504.015          45.323    20709059.151 7  84800134.005 7     -1171.960          44.858                                                                  
G21  21688022.606 7 113971324.256 7     -1923.685          45.592    21688021.540 7  88808822.501 7     -1498.977          43.979                                                                  
> 2020 06 11 13 26 21.0000000  0 11      -0.000000000000
G20  21282937.918 7 111842591.244 7        32.815          44.787    21282936.796 7  87150071.693 7        25.571          42.918                                                                  
G27  20474591.400 7 107594704.915 7      1016.200          47.609    20474592.413 7  83840029.077 7       791.844          47.320    20474592.950 8  83840031.078 8       791.844          49.353  
G10  22105365.448 7 116164483.415 7      2336.780          46.335    22105366.655 7  90517784.562 7      1820.868          46.371    22105366.497 7  90517786.566 7      1820.868          46.347  
G18  22884666.870 7 120259708.718 7     -3105.262          43.759    22884665.944 6  93708877.363 6     -2419.687          38.600    22884666.469 7  93708873.362 7     -2419.687          44.155  
G07  24437598.815 6 128420457.290 6       784.716          38.911    24437599.398 6 100067888.493 6       611.467          38.202    24437599.959 7 100067889.506 7       611.469          42.929  
G11  24677478.949 7 129681043.934 7      3516.229          42.481    24677480.756 5 101050152.669 5      2739.920          32.781                                                                  
G26  22466120.763 6 118060243.487 6     -3265.923          40.796    22466122.105 6  91995006.688 6     -2544.876          41.020    22466122.236 7  91994984.696 7     -2544.876          43.337  
G15  24869638.115 7 130690818.238 7       693.974          42.318    24869637.920 6 101837010.069 6       540.760          41.939    24869638.144 5 101837023.074 5       540.758          35.959  
G08  22300638.947 6 117190653.213 6      2633.971          39.943    22300641.511 6  91317392.919 6      2052.445          39.860    22300642.412 7  91317402.924 7      2052.446          45.969  
G16  20709346.898 7 108828346.698 7     -1503.627          43.672    20709345.314 7  84801305.775 7     -1171.658          43.057                                                                  
G21  21688388.645 7 113973247.779 7     -1923.209          43.838    21688387.553 7  88810321.351 7     -1498.606          42.256                                                                  
> 2020 06 11 13 26 22.0000000  0 11      -0.000000000000
G20  21282931.723 7 111842558.658 7        32.153          46.259    21282930.589 7  87150046.299 7        25.054          43.061                                                                  
G27  20474398.057 8 107593688.869 8      1015.834          48.834    20474399.065 8  83839237.353 8       791.558          48.444    20474399.607 8  83839239.354 8       791.558          49.911  
G10  22104920.828 7 116162146.890 7      2336.229          47.649    22104922.033 7  90515963.894 7      1820.438          47.559    22104921.884 7  90515965.899 7      1820.439          47.359  
G18  22885257.806 7 120262814.099 7     -3105.678          45.115    22885256.870 6  93711297.135 6     -2420.011          38.495    22885257.405 7  93711293.138 7     -2420.011          45.122  
G07  24437449.609 6 128419673.250 6       783.584          40.853    24437450.200 6 100067277.548 6       610.585          39.622    24437450.763 7 100067278.567 7       610.586          43.574  
G11  24676809.782 7 129677527.442 7      3516.352          43.942    24676811.628 5 101047412.534 5      2740.016          32.393                                                                  
G26  22466742.283 7 118063509.629 7     -3266.307          42.637    22466743.637 7  91997551.730 7     -2545.176          42.066    22466743.769 7  91997529.737 7     -2545.177          44.430  
G15  24869506.080 7 130690124.310 7       693.440          43.762    24869505.906 7 101836469.345 7       540.344          42.620    24869506.130 6 101836482.350 6       540.342          37.113  
G08  22300137.748 6 117188019.482 6      2633.669          41.531    22300140.319 6  91315340.660 6      2052.209          41.002    22300141.229 7  91315350.664 7      2052.209          46.912  
G16  20709633.097 7 108829850.652 7     -1504.428          44.968    20709631.511 7  84802477.685 7     -1172.283          43.358                                                                  
G21  21688754.648 7 113975171.139 7     -1923.575          45.367    21688753.556 7  88811820.071 7     -1498.891          42.824                                                                  
> 2020 06 11 13 26 23.0000000  0 11      -0.000000000000
G20  21282925.659 7 111842526.691 7        31.368          46.022    21282924.502 7  87150021.389 7        24.443          44.823                                                                  
G27  20474204.775 8 107592673.191 8      1015.243          48.797    20474205.786 8  83838445.914 8       791.098          48.861    20474206.335 8  83838447.915 8       791.098          50.574  
G10  22104476.294 7 116159810.807 7      2335.540          47.662    22104477.496 7  90514143.569 7      1819.901          47.597    22104477.347 8  90514145.576 8      1819.902          48.282  
G18  22885848.759 7 120265919.631 7     -3105.859          45.126    22885847.830 6  93713717.031 6     -2420.151          40.985    22885848.364 7  93713713.029 7     -2420.152          46.236  
G07  24437300.485 6 128418889.727 6       782.932          40.695    24437301.109 6 100066667.019 6       610.077          40.439    24437301.672 7 100066668.031 7       610.078          44.734  
G11  24676140.640 7 129674010.993 7      3516.063          43.718    24676142.464 5 101044672.452 5      2739.791          35.397                                                                  
G26  22467363.850 7 118066776.040 7     -3266.828          42.700    22467365.218 7  92000096.982 7     -2545.583          42.253    22467365.328 7  92000074.986 7     -2545.584          45.417  
G15  24869374.155 7 130689430.938 7       692.744          43.652    24869373.967 7 101835929.057 7       539.801          43.519    24869374.157 6 101835942.064 6       539.801          37.955  
G08  22299636.578 6 117185385.904 6      2632.994          41.058    22299639.158 6  91313288.519 6      2051.683          41.378    22299640.086 7  91313298.523 7      2051.683          47.854  
G16  20709919.399 7 108831355.172 7     -1504.963          44.843    20709917.816 7  84803650.036 7     -1172.699          44.645                                                                  
G21  21689120.697 7 113977094.717 7     -1923.810          45.231    21689119.605 7  88813318.961 7     -1499.073          44.040                                                                  
> 2020 06 11 13 26 24.0000000  0 11      -0.000000000000
G20  21282919.964 7 111842496.755 7        28.161          47.051    21282918.799 7  87149998.062 7        21.944          43.134                                                                  
G27  20474011.834 8 107591659.297 8      1012.189          49.622    20474012.848 8  83837655.867 8       788.719          49.791    20474013.394 8  83837657.868 8       788.718          50.250  
G10  22104032.103 8 116157476.563 8      2332.430          48.580    22104033.307 8  90512324.677 8      1817.478          48.735    22104033.163 7  90512326.684 7      1817.479          47.573  
G18  22886440.010 7 120269026.723 7     -3108.805          46.278    22886439.100 6  93716138.140 6     -2422.447          39.388    22886439.624 7  93716134.137 7     -2422.448          45.702  
G07  24437151.747 6 128418108.163 6       779.851          41.664    24437152.374 6 100066058.010 6       607.677          40.692    24437152.953 7 100066059.019 7       607.677          44.079  
G11  24675471.761 7 129670495.975 7      3513.421          44.797    24675473.551 5 101041933.480 5      2737.734          33.413                                                                  
G26  22467985.739 7 118070044.092 7     -3269.546          43.823    22467987.100 7  92002643.513 7     -2547.700          43.853    22467987.215 7  92002621.516 7     -2547.702          44.756  
G15  24869242.598 7 130688739.543 7       689.486          44.618    24869242.401 7 101835390.306 7       537.263          43.953    24869242.586 6 101835403.314 6       537.262          38.177  
G08  22299135.713 7 117182753.881 7      2630.432          42.371    22299138.291 7  91311237.592 7      2049.687          42.728    22299139.241 7  91311247.596 7      2049.687          47.333  
G16  20710206.062 7 108832861.637 7     -1508.290          45.946    20710204.486 7  84804823.905 7     -1175.292          44.645                                                                  
G21  21689487.051 7 113979019.926 7     -1926.916          46.267    21689485.960 7  88814819.125 7     -1501.493          43.682                                                                  
> 2020 06 11 13 26 25.0000000  0 11      -0.000000000000
G20  21282914.803 7 111842469.635 7        26.751          46.137    21282913.635 7  87149976.928 7        20.845          44.646                                                                  
G27  20473819.374 8 107590647.948 8      1011.031          48.936    20473820.394 8  83836867.802 8       787.816          48.841    20473820.939 8  83836869.802 8       787.816          50.171  
G10  22103588.416 7 116155144.969 7      2331.183          47.706    22103589.623 7  90510507.850 7      1816.506          47.852    22103589.472 7  90510509.857 7      1816.506          47.550  
G18  22887031.712 7 120272136.134 7     -3109.592          45.347    22887030.803 6  93718561.056 6     -2423.060          40.793    22887031.327 7  93718557.054 7     -2423.061          45.616  
G07  24437003.533 6 128417329.359 6       778.438          40.558    24437004.150 6 100065451.149 6       606.575          40.310    24437004.756 7 100065452.156 7       606.575          43.940  
G11  24674803.287 7 129666983.143 7      3512.718          43.937    24674805.041 5 101039196.214 5      2737.186          33.241                                                                  
G26  22468608.118 7 118073314.628 7     -3270.832          43.080    22468609.464 7  92005191.980 7     -2548.702          43.075    22468609.574 7  92005169.981 7     -2548.703          44.869  
G15  24869111.555 7 130688050.890 7       688.278          43.790    24869111.331 7 101834853.696 7       536.321          43.141    24869111.525 6 101834866.700 6       536.320          37.971  
G08  22298635.291 6 117180124.238 6      2629.233          41.335    22298637.879 6  91309188.521 6      2048.753          41.803    22298638.827 7  91309198.524 7      2048.753          47.283  
G16  20710493.263 7 108834370.873 7     -1509.673          45.114    20710491.679 7  84805999.931 7     -1176.370          44.252                                                                  
G21  21689853.870 7 113980947.543 7     -1927.871          45.361    21689852.769 7  88816321.159 7     -1502.240          43.878                                                                  
> 2020 06 11 13 26 26.0000000  0 11      -0.000000000000
G20  21282909.613 7 111842442.315 7        28.282          46.390    21282908.430 7  87149955.642 7        22.038          43.460                                                                  
G27  20473626.834 8 107589636.160 8      1012.726          49.120    20473627.856 8  83836079.395 8       789.137          49.204    20473628.404 8  83836081.396 8       789.136          50.254  
G10  22103144.658 7 116152813.003 7      2332.754          47.944    22103145.868 8  90508690.733 8      1817.730          48.098    22103145.725 7  90508692.738 7      1817.730          47.591  
G18  22887623.291 7 120275244.911 7     -3107.887          45.665    22887622.391 6  93720983.476 6     -2421.732          39.976    22887622.898 7  93720979.475 7     -2421.732          45.589  
G07  24436855.262 6 128416550.283 6       779.791          40.762    24436855.915 6 100064844.078 6       607.630          41.364    24436856.493 7 100064845.083 7       607.629          43.886  
G11  24674134.676 7 129663469.537 7      3514.843          44.182    24674136.407 5 101036458.343 5      2738.843          35.086                                                                  
G26  22469230.364 7 118076584.585 7     -3268.895          43.345    22469231.712 7  92007739.999 7     -2547.192          43.862    22469231.831 7  92007717.999 7     -2547.193          44.628  
G15  24868980.470 7 130687361.968 7       689.819          43.836    24868980.235 7 101834316.874 7       537.522          43.247    24868980.478 6 101834329.878 6       537.521          38.039  
G08  22298134.730 6 117177493.950 6      2631.103          41.642    22298137.345 6  91307138.945 6      2050.210          41.581    22298138.286 7  91307148.950 7      2050.210          47.279  
G16  20710780.399 7 108835879.848 7     -1508.038          45.384    20710778.826 7  84807175.756 7     -1175.095          44.552                                                                  
G21  21690220.573 7 113982874.565 7     -1925.972          45.628    21690219.460 7  88817822.731 7     -1500.760          43.868                                                                  
> 2020 06 11 13 26 27.0000000  0 11      -0.000000000000
G20  21282904.167 7 111842413.700 7        29.108          45.558    21282903.001 7  87149933.348 7        22.683          44.819                                                                  
G27  20473433.992 8 107588622.808 8      1014.067          48.338    20473435.020 8  83835289.770 8       790.182          48.286    20473435.567 8  83835291.771 8       790.182          50.204  
G10  22102700.617 7 116150479.538 7      2334.074          47.116    22102701.827 7  90506872.448 7      1818.759          46.932    22102701.688 7  90506874.452 7      1818.759          47.669  
G18  22888214.533 7 120278351.894 7     -3106.275          44.694    22888213.618 6  93723404.498 6     -2420.476          40.668    22888214.144 7  93723400.498 7     -2420.476          45.704  
G07  24436706.711 6 128415769.813 6       781.229          39.862    24436707.394 6 100064235.924 6       608.752          39.362    24436707.969 7 100064236.928 7       608.751          44.098  
G11  24673465.704 7 129659954.026 7      3516.373          43.273    24673467.377 5 101033718.984 5      2740.031          32.527                                                                  
G26  22469852.287 7 118079852.890 7     -3267.530          42.367    22469853.650 7  92010286.731 7     -2546.128          42.090    22469853.772 7  92010264.730 7     -2546.129          44.385  
G15  24868849.117 7 130686671.683 7       690.862          43.149    24868848.868 7 101833778.991 7       538.335          43.285    24868849.121 6 101833791.993 6       538.334          37.849  
G08  22297633.845 6 117174861.868 6      2632.985          40.652    22297636.471 6  91305087.973 6      2051.677          40.153    22297637.419 7  91305097.977 7      2051.677          47.342  
G16  20711067.283 7 108837387.446 7     -1507.164          44.379    20711065.719 7  84808350.509 7     -1174.414          43.880                                                                  
G21  21690586.960 7 113984799.881 7     -1924.654          44.668    21690585.833 7  88819322.978 7     -1499.732          43.822                                                                  
> 2020 06 11 13 26 28.0000000  0 11      -0.000000000000
G20  21282898.664 7 111842384.685 7        28.911          45.814    21282897.488 7  87149910.740 7        22.530          43.603                                                                  
G27  20473241.034 8 107587608.810 8      1014.030          48.709    20473242.061 8  83834499.642 8       790.154          48.757    20473242.616 8  83834501.644 8       790.154          50.205  
G10  22102256.465 7 116148145.495 7      2334.169          47.329    22102257.675 7  90505053.716 7      1818.834          47.045    22102257.540 7  90505055.718 7      1818.833          47.978  
G18  22888805.608 7 120281458.019 7     -3105.974          45.129    22888804.688 6  93725824.853 6     -2420.241          40.806    22888805.223 7  93725820.855 7     -2420.241          45.942  
G07  24436558.098 6 128414988.917 6       780.690          40.030    24436558.786 6 100063627.434 6       608.331          40.095    24436559.366 7 100063628.442 7       608.331          43.999  
G11  24672796.529 7 129656437.514 7      3516.706          43.580    24672798.214 5 101030978.827 5      2740.289          34.879                                                                  
G26  22470474.091 7 118083120.441 7     -3267.291          42.564    22470475.443 7  92012832.876 7     -2545.941          42.224    22470475.576 7  92012810.876 7     -2545.941          44.972  
G15  24868717.673 7 130685980.952 7       690.525          43.393    24868717.427 7 101833240.764 7       538.073          43.329    24868717.698 6 101833253.765 6       538.072          38.094  
G08  22297132.809 6 117172228.967 6      2633.092          41.011    22297135.440 6  91303036.365 6      2051.761          40.930    22297136.390 7  91303046.369 7      2051.761          47.609  
G16  20711354.081 7 108838894.588 7     -1507.133          44.639    20711352.522 7  84809524.909 7     -1174.388          44.034                                                                  
G21  21690953.183 7 113986724.398 7     -1924.411          44.980    21690952.064 7  88820822.602 7     -1499.542          43.030                                                                  
> 2020 06 11 13 26 29.0000000  0 11      -0.000000000000
G20  21282893.054 7 111842355.196 7        29.633          46.284    21282891.857 7  87149887.763 7        23.092          43.413                                                                  
G27  20473047.935 8 107586594.095 8      1015.002          49.054    20473048.966 8  83833708.957 8       790.911          49.272    20473049.528 8  83833710.958 8       790.911          49.807  
G10  22101812.202 7 116145810.830 7      2334.854          47.847    22101813.406 7  90503234.499 7      1819.368          47.809    22101813.272 7  90503236.501 7      1819.368          47.547  
G18  22889396.498 7 120284563.190 7     -3104.676          45.587    22889395.585 6  93728244.466 6     -2419.229          39.255    22889396.122 7  93728240.468 7     -2419.229          45.336  
G07  24436409.375 6 128414207.461 6       781.486          40.741    24436410.082 6 100063018.519 6       608.953          39.906    24436410.667 7 100063019.518 7       608.952          43.614  
G11  24672127.154 7 129652919.928 7      3518.114          44.165    24672128.917 5 101028237.855 5      2741.386          32.364                                                                  
G26  22471095.743 7 118086387.171 7     -3266.291          43.073    22471097.075 7  92015378.381 7     -2545.161          43.398    22471097.215 7  92015356.383 7     -2545.161          44.281  
G15  24868586.140 7 130685289.674 7       691.283          44.021    24868585.900 7 101832702.107 7       538.664          43.217    24868586.145 6 101832715.112 6       538.664          37.278  
G08  22296631.601 6 117169595.117 6      2634.280          41.382    22296634.228 6  91300984.017 6      2052.687          41.386    22296635.177 7  91300994.020 7      2052.687          46.925  
G16  20711640.778 7 108840401.192 7     -1506.407          45.095    20711639.214 7  84810698.886 7     -1173.823          44.320                                                                  
G21  21691319.256 7 113988648.038 7     -1923.193          45.650    21691318.121 7  88822321.545 7     -1498.592          42.581                                                                  
> 2020 06 11 13 26 30.0000000  0 11      -0.000000000000
G20  21282887.554 7 111842326.286 7        28.480          47.057    21282886.356 7  87149865.238 7        22.193          43.147                                                                  
G27  20472854.895 8 107585579.698 8      1013.978          49.765    20472855.935 8  83832918.518 8       790.113          49.812    20472856.494 8  83832920.519 8       790.113          50.001  
G10  22101368.007 8 116143476.539 8      2333.809          48.756    22101369.206 8  90501415.574 8      1818.554          48.813    22101369.068 7  90501417.577 7      1818.554          47.601  
G18  22889987.397 7 120287668.466 7     -3105.458          46.463    22889986.491 6  93730664.161 6     -2419.839          37.991    22889987.027 7  93730660.165 7     -2419.838          45.154  
G07  24436260.737 6 128413426.500 6       780.522          41.870    24436261.435 6 100062409.974 6       608.200          38.791    24436262.045 7 100062410.977 7       608.200          43.832  
G11  24671457.786 7 129649402.328 7      3517.429          45.270    24671459.554 5 101025496.868 5      2740.854          32.083                                                                  
G26  22471717.411 7 118089654.109 7     -3267.080          43.840    22471718.749 7  92017924.049 7     -2545.776          43.524    22471718.897 7  92017902.054 7     -2545.775          44.371  
G15  24868454.715 7 130684598.905 7       690.179          45.206    24868454.457 7 101832163.846 7       537.804          43.513    24868454.687 6 101832176.856 6       537.805          37.261  
G08  22296130.411 7 117166961.408 7      2633.353          42.645    22296133.041 7  91298931.776 7      2051.964          42.040    22296133.992 7  91298941.780 7      2051.964          46.988  
G16  20711927.571 7 108841908.323 7     -1507.532          46.135    20711926.009 7  84811873.275 7     -1174.700          43.247                                                                  
G21  21691685.365 7 113990571.860 7     -1924.201          46.547    21691684.215 7  88823820.629 7     -1499.377          42.284                                                                  
> 2020 06 11 13 26 31.0000000  0 11      -0.000000000000
G20  21282882.277 7 111842298.484 7        27.362          45.140    21282881.067 7  87149843.575 7        21.322          44.235                                                                  
G27  20472662.027 8 107584566.157 8      1013.246          48.234    20472663.064 8  83832128.747 8       789.543          48.224    20472663.624 8  83832130.748 8       789.543          50.051  
G10  22100923.994 7 116141143.197 7      2332.962          47.102    22100925.187 7  90499597.387 7      1817.894          47.097    22100925.054 7  90499599.393 7      1817.895          47.455  
G18  22890578.428 7 120290774.400 7     -3106.103          44.304    22890577.509 6  93733084.370 6     -2420.341          41.497    22890578.075 7  93733080.374 7     -2420.341          45.361  
G07  24436112.296 6 128412646.593 6       779.437          39.271    24436113.049 6 100061802.253 6       607.355          38.614    24436113.653 7 100061803.259 7       607.355          43.967  
G11  24670788.507 7 129645885.243 7      3516.832          43.137    24670790.323 5 101022756.292 5      2740.392          34.416                                                                  
G26  22472339.232 6 118092921.821 6     -3267.994          41.608    22472340.579 6  92020470.318 6     -2546.489          41.745    22472340.724 7  92020448.325 7     -2546.488          44.435  
G15  24868323.471 7 130683909.188 7       689.284          43.107    24868323.227 7 101831626.409 7       537.107          43.236    24868323.482 6 101831639.417 6       537.107          37.825  
G08  22295629.331 6 117164328.358 6      2632.630          40.324    22295631.987 6  91296880.048 6      2051.401          39.744    22295632.938 7  91296890.054 7      2051.401          47.132  
G16  20712214.554 7 108843416.504 7     -1508.645          44.128    20712212.999 7  84813048.480 7     -1175.567          43.957                                                                  
G21  21692051.608 7 113992496.392 7     -1924.831          44.557    21692050.453 7  88825320.262 7     -1499.869          43.909                                                                  
> 2020 06 11 13 26 32.0000000  0 11      -0.000000000000
G20  21282877.052 7 111842271.102 7        27.112          45.424    21282875.851 7  87149822.239 7        21.128          42.830                                                                  
G27  20472469.188 8 107583552.792 8      1013.245          48.617    20472470.228 8  83831339.112 8       789.542          48.467    20472470.783 8  83831341.114 8       789.542          50.140  
G10  22100480.028 7 116138810.094 7      2332.931          47.406    22100481.210 7  90497779.385 7      1817.870          47.107    22100481.087 7  90497781.392 7      1817.871          47.544  
G18  22891169.452 7 120293880.262 7     -3105.867          44.826    22891168.550 6  93735504.520 6     -2420.157          39.300    22891169.092 7  93735500.523 7     -2420.157          45.584  
G07  24435963.953 6 128411867.025 6       779.453          39.992    24435964.706 6 100061194.801 6       607.369          38.931    24435965.296 7 100061195.805 7       607.368          43.937  
G11  24670119.180 7 129642367.952 7      3517.294          43.669    24670120.985 5 101020015.561 5      2740.754          34.348                                                                  
G26  22472961.053 6 118096189.558 6     -3267.802          41.834    22472962.408 6  92023016.607 6     -2546.339          40.929    22472962.542 7  92022994.615 7     -2546.338          44.688  
G15  24868192.293 7 130683219.817 7       688.975          43.758    24868192.046 7 101831089.238 7       536.865          43.575    24868192.331 6 101831102.244 6       536.866          37.699  
G08  22295128.246 6 117161695.279 6      2632.956          41.037    22295130.924 6  91294828.298 6      2051.655          40.858    22295131.881 7  91294838.305 7      2051.655          47.219  
G16  20712501.610 7 108844925.012 7     -1508.631          44.640    20712500.044 7  84814223.938 7     -1175.557          44.221                                                                  
G21  21692417.825 7 113994420.922 7     -1924.666          44.840    21692416.688 7  88826819.895 7     -1499.740          43.083                                                                  
> 2020 06 11 13 26 33.0000000  0 11      -0.000000000000
G20  21282871.960 7 111842244.340 7        26.291          46.360    21282870.745 7  87149801.385 7        20.487          42.413                                                                  
G27  20472276.419 8 107582539.796 8      1012.344          49.289    20472277.462 8  83830549.765 8       788.840          49.323    20472278.015 8  83830551.767 8       788.840          50.227  
G10  22100036.138 8 116136477.437 8      2332.025          48.128    22100037.320 8  90495961.732 8      1817.163          48.384    22100037.199 7  90495963.739 7      1817.164          47.291  
G18  22891760.516 7 120296986.297 7     -3106.580          45.827    22891759.624 6  93737924.805 6     -2420.713          38.706    22891760.159 7  93737920.806 7     -2420.714          45.577  
G07  24435815.694 6 128411088.036 6       778.253          41.085    24435816.468 6 100060587.796 6       606.431          37.995    24435817.067 7 100060588.800 7       606.432          44.148  
G11  24669449.899 7 129638850.719 7      3516.744          44.579    24669451.726 5 101017274.871 5      2740.326          30.288                                                                  
G26  22473582.933 7 118099457.567 7     -3268.303          42.633    22473584.287 7  92025563.104 7     -2546.730          42.838    22473584.445 7  92025541.116 7     -2546.729          44.974  
G15  24868061.222 7 130682531.009 7       688.113          44.601    24868060.985 7 101830552.503 7       536.193          42.949    24868061.288 6 101830565.514 6       536.195          38.014  
G08  22294627.181 6 117159062.365 6      2632.404          41.666    22294629.888 6  91292776.677 6      2051.224          41.674    22294630.853 7  91292786.684 7      2051.225          47.197  
G16  20712788.775 7 108846434.108 7     -1509.859          45.549    20712787.232 7  84815399.859 7     -1176.514          42.855                                                                  
G21  21692784.095 7 113996345.678 7     -1925.174          45.821    21692782.966 6  88828319.704 6     -1500.136          41.933                                                                  
> 2020 06 11 13 26 34.0000000  0 11      -0.000000000000
G20  21282867.022 7 111842218.397 7        25.482          45.294    21282865.800 7  87149781.171 7        19.857          43.787                                                                  
G27  20472083.753 8 107581527.333 8      1012.332          48.467    20472084.798 8  83829760.832 8       788.831          48.411    20472085.352 8  83829762.833 8       788.831          50.193  
G10  22099592.369 7 116134145.398 7      2331.734          47.200    22099593.543 7  90494144.558 7      1816.936          47.442    22099593.432 7  90494146.564 7      1816.936          47.379  
G18  22892351.620 7 120300092.638 7     -3106.412          44.785    22892350.748 6  93740345.329 6     -2420.582          39.918    22892351.274 7  93740341.327 7     -2420.583          45.436  
G07  24435667.586 6 128410309.767 6       778.005          39.840    24435668.377 6 100059981.346 6       606.238          39.091    24435668.958 7 100059982.357 7       606.239          44.047  
G11  24668780.623 7 129635333.654 7      3517.037          43.818    24668782.495 5 101014534.300 5      2740.551          33.201                                                                  
G26  22474204.888 6 118102726.052 6     -3268.715          41.495    22474206.266 6  92028109.974 6     -2547.051          41.715    22474206.428 7  92028087.984 7     -2547.051          45.050  
G15  24867930.283 7 130681842.948 7       687.694          43.442    24867930.067 7 101830016.349 7       535.866          43.518    24867930.382 6 101830029.363 6       535.868          38.420  
G08  22294126.220 6 117156429.830 6      2632.450          40.621    22294128.928 6  91290725.355 6      2051.261          40.801    22294129.901 7  91290735.361 7      2051.261          47.271  
G16  20713076.074 7 108847943.915 7     -1510.113          44.280    20713074.542 7  84816576.333 7     -1176.711          44.252                                                                  
G21  21693150.455 7 113998270.838 7     -1925.218          44.768    21693149.316 7  88829819.834 7     -1500.169          43.529                                                                  
> 2020 06 11 13 26 35.0000000  0 11      -0.000000000000
G20  21282862.282 7 111842193.491 7        24.268          45.437    21282861.067 7  87149761.764 7        18.911          43.937                                                                  
G27  20471891.240 8 107580515.690 8      1011.033          48.652    20471892.287 8  83828972.537 8       787.818          48.631    20471892.847 8  83828974.539 8       787.818          50.179  
G10  22099148.747 7 116131814.128 7      2330.588          47.382    22099149.919 7  90492327.983 7      1816.043          46.963    22099149.812 7  90492329.986 7      1816.042          47.454  
G18  22892942.845 7 120303199.577 7     -3107.456          44.919    22892941.966 6  93742766.318 6     -2421.396          40.352    22892942.499 7  93742762.315 7     -2421.397          45.436  
G07  24435519.642 6 128409532.479 6       776.669          40.040    24435520.474 6 100059375.670 6       605.197          39.342    24435521.074 7 100059376.677 7       605.197          44.052  
G11  24668111.450 7 129631817.072 7      3516.154          43.709    24668113.318 5 101011794.101 5      2739.864          31.722                                                                  
G26  22474826.967 6 118105995.214 6     -3269.724          41.844    22474828.376 6  92030657.366 6     -2547.840          40.997    22474828.536 7  92030635.377 7     -2547.839          45.097  
G15  24867799.557 7 130681155.869 7       686.488          43.550    24867799.319 7 101829480.959 7       534.925          43.370    24867799.677 6 101829493.977 6       534.927          38.421  
G08  22293625.379 6 117153797.897 6      2631.478          41.082    22293628.082 6  91288674.498 6      2050.503          40.723    22293629.058 7  91288684.503 7      2050.503          47.203  
G16  20713363.557 7 108849454.733 7     -1511.574          44.644    20713362.049 7  84817753.591 7     -1177.850          43.910                                                                  
G21  21693516.934 7 114000196.654 7     -1926.276          44.932    21693515.787 7  88831320.468 7     -1500.994          43.814                                                                  
> 2020 06 11 13 26 36.0000000  0 11      -0.000000000000
G20  21282857.808 7 111842169.947 7        23.153          44.748    21282856.584 7  87149743.415 7        18.041          44.617                                                                  
G27  20471698.934 8 107579505.132 8      1010.316          48.008    20471699.981 7  83828185.087 7       787.259          47.755    20471700.541 8  83828187.089 8       787.259          50.119  
G10  22098705.374 7 116129484.146 7      2329.712          46.646    22098706.540 7  90490512.410 7      1815.360          46.765    22098706.437 7  90490514.411 7      1815.359          47.528  
G18  22893534.255 7 120306307.400 7     -3107.920          44.125    22893533.353 6  93745187.996 6     -2421.758          41.691    22893533.903 7  93745183.993 7     -2421.759          45.251  
G07  24435371.973 6 128408756.482 6       775.678          39.018    24435372.798 6 100058770.995 6       604.423          39.269    24435373.405 7 100058772.001 7       604.424          44.009  
G11  24667442.413 7 129628301.232 7      3515.707          43.020    24667444.306 5 101009054.488 5      2739.514          32.625                                                                  
G26  22475449.259 6 118109265.365 6     -3270.299          41.131    22475450.666 6  92033205.526 6     -2548.289          41.576    22475450.815 7  92033183.539 7     -2548.288          45.222  
G15  24867669.067 7 130680470.085 7       685.451          42.865    24867668.841 7 101828946.580 7       534.116          42.741    24867669.167 6 101828959.596 6       534.117          38.180  
G08  22293124.667 6 117151166.837 6      2631.063          40.255    22293127.402 6  91286624.321 6      2050.179          40.072    22293128.387 7  91286634.326 7      2050.180          47.077  
G16  20713651.285 7 108850966.830 7     -1512.291          43.843    20713649.794 7  84818931.845 7     -1178.409          43.459                                                                  
G21  21693883.589 7 114002123.427 7     -1927.028          44.150    21693882.447 7  88832821.845 7     -1501.581          43.758                                                                  
> 2020 06 11 13 26 37.0000000  0 11      -0.000000000000
G20  21282853.366 7 111842146.598 7        22.735          46.745    21282852.122 7  87149725.221 7        17.715          43.376                                                                  
G27  20471506.621 8 107578494.535 8      1010.134          49.474    20471507.669 8  83827397.608 8       787.116          49.596    20471508.236 8  83827399.610 8       787.117          50.101  
G10  22098262.011 8 116127154.197 8      2329.415          48.357    22098263.168 8  90488696.865 8      1815.129          48.093    22098263.061 7  90488698.865 7      1815.128          47.634  
G18  22894125.603 7 120309414.948 7     -3107.859          46.064    22894124.706 6  93747609.461 6     -2421.711          39.412    22894125.246 7  93747605.456 7     -2421.711          45.328  
G07  24435224.339 6 128407980.604 6       775.488          41.275    24435225.146 6 100058166.403 6       604.274          40.517    24435225.756 7 100058167.418 7       604.276          43.940  
G11  24666773.320 7 129624785.001 7      3515.881          45.006    24666775.207 5 101006314.560 5      2739.647          32.213                                                                  
G26  22476071.530 7 118112535.382 7     -3270.630          43.330    22476072.946 7  92035753.584 7     -2548.548          43.185    22476073.094 7  92035731.597 7     -2548.547          45.233  
G15  24867538.620 7 130679784.435 7       685.306          44.835    24867538.378 7 101828412.305 7       534.003          44.249    24867538.678 6 101828425.322 6       534.004          37.899  
G08  22292623.920 7 117148535.537 7      2630.979          42.238    22292626.678 7  91284573.956 7      2050.114          42.021    22292627.669 7  91284583.962 7      2050.114          47.113  
G16  20713939.057 7 108852479.072 7     -1512.751          45.776    20713937.556 7  84820110.210 7     -1178.769          44.610                                                                  
G21  21694250.202 7 114004049.971 7     -1926.732          46.114    21694249.056 7  88834323.044 7     -1501.351          42.981                                                                  
> 2020 06 11 13 26 38.0000000  0 11      -0.000000000000
G20  21282849.108 7 111842124.189 7        22.325          45.836    21282847.860 7  87149707.759 7        17.396          43.451                                                                  
G27  20471314.439 8 107577484.617 8      1009.889          48.915    20471315.488 8  83826610.660 8       786.926          48.745    20471316.055 8  83826612.662 8       786.926          50.066  
G10  22097818.781 7 116124825.001 7      2329.260          47.674    22097819.940 7  90486881.911 7      1815.009          47.777    22097819.833 7  90486883.910 7      1815.008          47.637  
G18  22894717.038 7 120312522.956 7     -3107.844          45.354    22894716.132 6  93750031.281 6     -2421.699          39.230    22894716.683 7  93750027.280 7     -2421.699          45.329  
G07  24435076.855 6 128407205.608 6       775.150          40.146    24435077.709 6 100057562.517 6       604.013          40.070    24435078.271 7 100057563.528 7       604.013          43.873  
G11  24666104.279 7 129621269.108 7      3515.989          44.131    24666106.166 5 101003574.904 5      2739.731          34.696                                                                  
G26  22476693.904 7 118115805.937 7     -3270.596          42.550    22476695.331 7  92038302.067 7     -2548.520          42.828    22476695.467 7  92038280.077 7     -2548.521          45.397  
G15  24867408.325 7 130679099.664 7       684.767          43.763    24867408.098 7 101827878.717 7       533.584          43.912    24867408.391 6 101827891.735 6       533.585          38.129  
G08  22292123.270 6 117145904.724 6      2630.660          41.233    22292126.041 6  91282523.974 6      2049.866          40.989    22292127.039 7  91282533.980 7      2049.866          47.095  
G16  20714226.991 7 108853992.192 7     -1513.180          44.865    20714225.490 7  84821289.266 7     -1179.102          43.989                                                                  
G21  21694616.920 7 114005977.084 7     -1926.981          45.282    21694615.774 7  88835824.692 7     -1501.544          44.157                                                                  
> 2020 06 11 13 26 39.0000000  0 11      -0.000000000000
G20  21282844.871 7 111842101.971 7        22.217          45.866    21282843.627 7  87149690.445 7        17.312          43.819                                                                  
G27  20471122.241 8 107576474.637 8      1010.044          49.000    20471123.293 8  83825823.662 8       787.047          48.948    20471123.862 8  83825825.664 8       787.047          50.121  
G10  22097375.563 7 116122495.826 7      2329.247          47.969    22097376.718 8  90485066.971 8      1814.999          48.111    22097376.601 7  90485068.972 7      1814.999          47.589  
G18  22895308.428 7 120315630.685 7     -3107.440          45.664    22895307.526 6  93752452.891 6     -2421.383          40.065    22895308.072 7  93752448.888 7     -2421.384          45.328  
G07  24434929.396 6 128406430.737 6       775.038          40.559    24434930.264 6 100056958.722 6       603.926          40.904    24434930.797 7 100056959.735 7       603.927          43.894  
G11  24665435.144 7 129617752.793 7      3516.593          44.534    24665437.022 5 101000834.904 5      2740.201          32.674                                                                  
G26  22477316.232 7 118119076.343 7     -3270.219          42.902    22477317.679 7  92040850.434 7     -2548.225          42.840    22477317.789 7  92040828.439 7     -2548.227          45.235  
G15  24867278.059 7 130678415.020 7       684.616          44.097    24867277.822 7 101827345.230 7       533.467          43.829    24867278.119 6 101827358.246 6       533.467          38.276  
G08  22291622.569 6 117143273.636 6      2631.565          41.197    22291625.352 6  91280473.778 6      2050.572          40.834    22291626.355 7  91280483.782 7      2050.571          47.106  
G16  20714514.950 7 108855505.442 7     -1513.411          44.963    20714513.455 7  84822468.422 7     -1179.282          43.976                                                                  
G21  21694983.601 7 114007903.970 7     -1926.603          45.464    21694982.450 7  88837326.161 7     -1501.250          44.047                                                                  
> 2020 06 11 13 26 40.0000000  0 11      -0.000000000000
G20  21282840.694 7 111842080.036 7        21.714          45.983    21282839.439 7  87149673.354 7        16.920          43.613                                                                  
G27  20470930.063 8 107575464.716 8      1009.691          49.041    20470931.111 8  83825036.710 8       786.772          49.116    20470931.681 8  83825038.713 8       786.772          50.086  
G10  22096932.368 8 116120166.769 8      2328.755          48.073    22096933.516 8  90483252.121 8      1814.615          48.247    22096933.395 7  90483254.127 7      1814.616          47.513  
G18  22895899.779 7 120318738.246 7     -3107.674          45.576    22895898.877 6  93754874.366 6     -2421.565          40.549    22895899.409 7  93754870.363 7     -2421.565          45.323  
G07  24434781.985 6 128405656.117 6       774.120          40.797    24434782.849 6 100056355.121 6       603.211          38.574    24434783.395 7 100056356.136 7       603.211          44.028  
G11  24664765.971 7 129614236.187 7      3516.456          44.257    24664767.853 5 100998094.699 5      2740.095          34.648                                                                  
G26  22477938.547 7 118122346.702 7     -3270.510          42.910    22477940.016 7  92043398.766 7     -2548.452          42.575    22477940.127 7  92043376.768 7     -2548.453          45.219  
G15  24867147.829 7 130677730.628 7       683.759          44.157    24867147.592 7 101826811.935 7       532.799          44.040    24867147.874 6 101826824.954 6       532.800          38.483  
G08  22291121.829 6 117140642.409 6      2630.976          41.268    22291124.634 6  91278423.472 6      2050.112          41.777    22291125.642 7  91278433.476 7      2050.111          47.004  
G16  20714802.960 7 108857018.920 7     -1513.934          45.152    20714801.455 7  84823647.755 7     -1179.690          44.593                                                                  
G21  21695350.255 7 114009830.754 7     -1926.937          45.694    21695349.105 7  88838827.544 7     -1501.511          43.649                                                                  
> 2020 06 11 13 26 41.0000000  0 11      -0.000000000000
G20  21282836.651 7 111842058.868 7        21.196          46.152    21282835.418 7  87149656.862 7        16.517          43.647                                                                  
G27  20470737.978 8 107574455.282 8      1009.573          49.011    20470739.021 8  83824250.138 8       786.680          48.973    20470739.592 8  83824252.141 8       786.681          50.069  
G10  22096489.272 8 116117838.278 8      2328.586          48.056    22096490.420 8  90481437.712 8      1814.483          48.009    22096490.297 7  90481439.721 7      1814.485          47.259  
G18  22896491.176 7 120321846.086 7     -3107.801          45.572    22896490.298 6  93757296.056 6     -2421.665          39.845    22896490.815 7  93757292.058 7     -2421.664          45.298  
G07  24434634.688 6 128404882.145 6       773.816          40.391    24434635.560 6 100055752.028 6       602.973          40.052    24434636.104 7 100055753.041 7       602.974          43.827  
G11  24664096.821 7 129610719.726 7      3516.511          44.440    24664098.713 5 100995354.616 5      2740.142          33.251                                                                  
G26  22478560.933 7 118125617.420 7     -3270.389          42.644    22478562.430 7  92045947.376 7     -2548.357          42.243    22478562.523 7  92045925.377 7     -2548.359          45.122  
G15  24867017.720 7 130677046.886 7       683.685          44.172    24867017.472 7 101826279.149 7       532.741          44.195    24867017.808 6 101826292.169 6       532.742          37.845  
G08  22290621.169 6 117138011.472 6      2630.988          41.326    22290623.978 6  91276373.392 6      2050.122          41.252    22290624.984 7  91276383.394 7      2050.121          47.074  
G16  20715091.095 7 108858533.092 7     -1514.281          45.029    20715089.595 7  84824827.626 7     -1179.960          44.083                                                                  
G21  21695716.979 7 114011757.877 7     -1926.982          45.657    21695715.832 7  88840329.194 7     -1501.547          43.731                                                                  
> 2020 06 11 13 26 42.0000000  0 11      -0.000000000000
G20  21282832.743 7 111842038.314 7        19.876          46.019    21282831.504 7  87149640.848 7        15.489          42.976                                                                  
G27  20470545.953 8 107573446.193 8      1008.725          48.968    20470546.999 8  83823463.835 8       786.019          49.114    20470547.566 8  83823465.838 8       786.019          49.884  
G10  22096046.259 7 116115510.219 7      2327.800          47.926    22096047.400 7  90479623.640 7      1813.870          47.988    22096047.282 7  90479625.650 7      1813.871          47.008  
G18  22897082.603 7 120324954.058 7     -3108.365          45.386    22897081.712 6  93759717.854 6     -2422.104          39.405    22897082.234 7  93759713.855 7     -2422.104          44.970  
G07  24434487.496 6 128404108.710 6       773.051          40.693    24434488.369 6 100055149.349 6       602.377          40.582    24434488.932 7 100055150.366 7       602.379          43.412  
G11  24663427.666 7 129607203.259 7      3516.249          44.269    24663429.527 5 100992614.517 5      2739.938          33.007                                                                  
G26  22479183.376 7 118128888.425 7     -3271.552          42.557    22479184.899 7  92048496.211 7     -2549.263          42.631    22479184.983 7  92048474.209 7     -2549.265          44.971  
G15  24866887.717 7 130676363.704 7       682.595          44.068    24866887.488 7 101825746.798 7       531.891          43.285    24866887.851 6 101825759.817 6       531.892          37.540  
G08  22290120.526 6 117135380.665 6      2630.522          41.354    22290123.350 6  91274323.413 6      2049.759          41.522    22290124.365 7  91274333.415 7      2049.758          46.901  
G16  20715379.326 7 108860047.801 7     -1515.296          44.924    20715377.833 7  84826007.920 7     -1180.750          44.599                                                                  
G21  21696083.743 7 114013685.215 7     -1927.743          45.562    21696082.607 7  88841831.017 7     -1502.139          44.243                                                                  
> 2020 06 11 13 26 43.0000000  0 11      -0.000000000000
G20  21282828.971 7 111842018.601 7        19.299          45.981    21282827.742 7  87149625.491 7        15.040          44.412                                                                  
G27  20470354.041 8 107572437.725 8      1008.407          48.901    20470355.092 8  83822678.017 8       785.772          48.969    20470355.657 8  83822680.021 8       785.773          50.254  
G10  22095603.381 7 116113182.859 7      2327.129          47.834    22095604.514 7  90477810.113 7      1813.347          47.626    22095604.397 7  90477812.122 7      1813.348          47.817  
G18  22897674.085 7 120328062.404 7     -3108.287          45.094    22897673.202 6  93762139.937 6     -2422.043          41.882    22897673.730 7  93762135.943 7     -2422.042          45.969  
G07  24434340.452 6 128403336.082 6       772.329          40.748    24434341.337 6 100054547.306 6       601.815          40.347    24434341.913 7 100054548.319 7       601.816          44.224  
G11  24662758.561 7 129603687.068 7      3516.130          44.333    24662760.411 5 100989874.628 5      2739.844          33.687                                                                  
G26  22479805.911 7 118132159.909 7     -3271.817          42.456    22479807.451 7  92051045.416 7     -2549.470          42.402    22479807.532 7  92051023.413 7     -2549.472          45.831  
G15  24866757.865 7 130675681.313 7       682.198          44.169    24866757.635 7 101825215.063 7       531.582          44.233    24866757.984 6 101825228.084 6       531.583          38.315  
G08  22289619.962 6 117132750.246 6      2630.635          41.338    22289622.792 6  91272273.737 6      2049.846          41.967    22289623.819 7  91272283.739 7      2049.846          47.671  
G16  20715667.716 7 108861563.311 7     -1515.808          44.904    20715666.224 7  84827188.841 7     -1181.149          44.442                                                                  
G21  21696450.601 7 114015613.005 7     -1928.014          45.544    21696449.440 7  88843333.190 7     -1502.350          44.758                                                                  
> 2020 06 11 13 26 44.0000000  0 11      -0.000000000000
G20  21282825.378 7 111841999.715 7        18.602          45.907    21282824.142 7  87149610.775 7        14.496          42.355                                                                  
G27  20470162.243 8 107571429.835 8      1007.770          48.906    20470163.295 8  83821892.647 8       785.275          48.842    20470163.859 8  83821894.652 8       785.276          49.102  
G10  22095160.624 7 116110856.138 7      2326.606          47.824    22095161.751 7  90475997.082 7      1812.940          47.724    22095161.638 7  90475999.090 7      1812.940          46.302  
G18  22898265.647 7 120331171.134 7     -3108.779          45.259    22898264.789 6  93764562.322 6     -2422.427          39.530    22898265.308 7  93764558.330 7     -2422.426          44.074  
G07  24434193.562 6 128402564.200 6       771.906          40.753    24434194.427 6 100053945.840 6       601.486          40.346    24434195.032 7 100053946.852 7       601.486          42.608  
G11  24662089.507 7 129600171.110 7      3515.983          44.601    24662091.336 5 100987134.921 5      2739.729          32.936                                                                  
G26  22480428.532 7 118135431.854 7     -3272.133          42.361    22480430.081 7  92053594.980 7     -2549.716          42.814    22480430.164 7  92053572.976 7     -2549.718          43.881  
G15  24866628.156 7 130674999.680 7       681.503          43.963    24866627.966 7 101824683.921 7       531.041          43.181    24866628.332 6 101824696.943 6       531.042          36.542  
G08  22289119.464 6 117130120.248 6      2630.125          41.316    22289122.316 6  91270224.389 6      2049.449          41.580    22289123.357 7  91270234.393 7      2049.449          46.130  
G16  20715956.248 7 108863079.589 7     -1516.449          44.926    20715954.753 7  84828370.354 7     -1181.649          43.307                                                                  
G21  21696817.547 7 114017541.214 7     -1928.202          45.467    21696816.358 7  88844835.692 7     -1502.496          42.816                                                                  
> 2020 06 11 13 26 45.0000000  0 11      -0.000000000000
G20  21282821.971 7 111841981.805 7        17.471          45.854    21282820.746 7  87149596.818 7        13.614          43.038                                                                  
G27  20469970.582 8 107570422.665 8      1006.828          48.862    20469971.638 8  83821107.838 8       784.541          48.828    20469972.207 8  83821109.843 8       784.541          49.872  
G10  22094718.019 7 116108530.208 7      2325.649          47.748    22094719.140 7  90474184.669 7      1812.194          47.575    22094719.030 7  90474186.672 7      1812.193          46.304  
G18  22898857.313 7 120334280.350 7     -3109.377          45.031    22898856.478 6  93766985.087 6     -2422.892          39.946    22898856.978 7  93766981.094 7     -2422.892          44.383  
G07  24434046.844 6 128401793.230 6       770.662          40.743    24434047.724 6 100053345.084 6       600.517          39.540    24434048.314 7 100053346.093 7       600.516          43.763  
G11  24661420.512 7 129596655.515 7      3515.564          44.320    24661422.340 5 100984395.494 5      2739.402          33.235                                                                  
G26  22481051.266 7 118138704.413 7     -3272.764          42.262    22481052.830 7  92056145.022 7     -2550.208          42.099    22481052.917 7  92056123.017 7     -2550.210          43.825  
G15  24866498.646 7 130674318.964 7       680.413          43.875    24866498.444 7 101824153.496 7       530.192          43.151    24866498.810 6 101824166.514 6       530.192          37.046  
G08  22288619.085 6 117127490.760 6      2629.176          41.233    22288621.934 6  91268175.436 6      2048.709          40.978    22288622.990 7  91268185.440 7      2048.709          46.072  
G16  20716244.952 7 108864596.761 7     -1517.465          44.917    20716243.465 7  84829552.565 7     -1182.441          43.926                                                                  
G21  21697184.587 7 114019469.995 7     -1928.914          45.398    21697183.394 7  88846338.636 7     -1503.051          43.091                                                                  
> 2020 06 11 13 26 46.0000000  0 11      -0.000000000000
G20  21282818.718 7 111841964.732 7        16.677          44.832    21282817.512 7  87149583.516 7        12.996          43.139                                                                  
G27  20469779.026 8 107569416.058 8      1006.512          48.088    20469780.085 8  83820323.470 8       784.295          48.231    20469780.653 8  83820325.474 8       784.295          49.010  
G10  22094275.536 7 116106204.938 7      2325.045          46.978    22094276.655 7  90472372.772 7      1811.723          46.867    22094276.543 7  90472374.772 7      1811.722          45.857  
G18  22899449.034 7 120337389.904 7     -3109.438          44.148    22899448.226 6  93769408.118 6     -2422.940          40.087    22899448.709 7  93769404.122 7     -2422.939          43.607  
G07  24433900.271 6 128401023.016 6       770.058          39.900    24433901.154 6 100052744.921 6       600.047          40.004    24433901.728 7 100052745.925 7       600.045          42.320  
G11  24660751.579 7 129593140.142 7      3515.662          43.450    24660753.423 5 100981656.237 5      2739.476          32.293                                                                  
G26  22481674.098 6 118141977.435 6     -3273.052          41.226    22481675.661 6  92058695.424 6     -2550.433          41.644    22481675.752 7  92058673.421 7     -2550.433          42.971  
G15  24866369.254 7 130673639.016 7       679.707          43.036    24866369.057 7 101823623.669 7       529.642          42.956    24866369.401 5 101823636.683 5       529.641          35.602  
G08  22288118.769 6 117124861.636 6      2628.907          40.364    22288121.622 6  91266126.768 6      2048.499          39.717    22288122.684 7  91266136.772 7      2048.500          45.460  
G16  20716533.806 7 108866114.710 7     -1518.091          43.965    20716532.326 7  84830735.380 7     -1182.929          43.815                                                                  
G21  21697551.708 7 114021399.190 7     -1929.071          44.614    21697550.507 7  88847841.905 7     -1503.173          43.184                                                                  
> 2020 06 11 13 26 47.0000000  0 11      -0.000000000000
G20  21282815.602 7 111841948.376 7        15.628          45.975    21282814.405 6  87149570.770 6        12.178          41.367                                                                  
G27  20469587.564 8 107568409.942 8      1005.337          49.025    20469588.628 8  83819539.482 8       783.380          49.022    20469589.197 8  83819541.487 8       783.380          48.687  
G10  22093833.156 7 116103880.211 7      2323.968          47.937    22093834.271 8  90470561.297 8      1810.885          48.010    22093834.169 7  90470563.295 7      1810.883          45.893  
G18  22900040.816 7 120340499.754 7     -3110.447          45.290    22900040.030 6  93771831.375 6     -2423.726          37.534    22900040.498 7  93771827.381 7     -2423.726          43.694  
G07  24433753.821 6 128400253.471 6       768.849          41.180    24433754.714 6 100052145.278 6       599.105          39.112    24433755.283 6 100052146.280 6       599.103          41.820  
G11  24660082.681 7 129589624.919 7      3514.803          44.598    24660084.516 5 100978917.105 5      2738.810          30.317                                                                  
G26  22482296.987 7 118145250.859 7     -3274.155          42.636    22482298.568 7  92061246.142 7     -2551.293          42.261    22482298.667 7  92061224.139 7     -2551.293          42.890  
G15  24866239.994 7 130672959.730 7       678.554          44.133    24866239.820 7 101823094.358 7       528.745          42.001    24866240.118 5 101823107.369 5       528.743          35.340  
G08  22287618.506 6 117122232.768 6      2628.056          41.178    22287621.365 6  91264078.299 6      2047.837          40.627    22287622.428 7  91264088.305 7      2047.837          45.387  
G16  20716822.783 7 108867633.308 7     -1519.420          45.134    20716821.307 6  84831918.701 6     -1183.964          41.629                                                                  
G21  21697918.896 7 114023328.745 7     -1930.296          45.772    21697917.690 6  88849345.448 6     -1504.129          41.072                                                                  
> 2020 06 11 13 26 48.0000000  0 11      -0.000000000000
G20  21282812.709 7 111841933.195 7        14.718          46.531    21282811.496 6  87149558.940 6        11.469          41.834                                                                  
G27  20469396.272 8 107567404.721 8      1004.859          49.471    20469397.342 8  83818756.194 8       783.007          49.262    20469397.914 8  83818758.199 8       783.007          49.252  
G10  22093390.969 8 116101556.487 8      2323.225          48.491    22093392.087 8  90468750.605 8      1810.306          48.312    22093391.983 7  90468752.603 7      1810.305          46.663  
G18  22900632.728 7 120343610.263 7     -3110.780          45.964    22900631.946 6  93774255.147 6     -2423.985          37.697    22900632.414 7  93774251.151 7     -2423.986          44.291  
G07  24433607.588 6 128399485.025 6       767.873          41.855    24433608.467 6 100051546.487 6       598.343          39.523    24433609.034 7 100051547.491 7       598.342          42.717  
G11  24659413.862 7 129586110.247 7      3514.505          45.489    24659415.679 5 100976178.415 5      2738.580          32.139                                                                  
G26  22482920.050 7 118148525.038 7     -3274.556          43.138    22482921.628 7  92063797.448 7     -2551.605          42.853    22482921.719 7  92063775.447 7     -2551.604          43.542  
G15  24866110.946 7 130672281.548 7       677.489          44.721    24866110.770 7 101822565.908 7       527.916          42.555    24866111.050 5 101822578.914 5       527.913          35.999  
G08  22287118.369 7 117119604.621 7      2627.570          42.080    22287121.245 7  91262030.394 7      2047.458          42.409    22287122.308 7  91262040.398 7      2047.458          46.068  
G16  20717111.975 7 108869153.026 7     -1520.375          45.752    20717110.494 7  84833102.895 7     -1184.709          42.075                                                                  
G21  21698286.221 7 114025259.035 7     -1930.656          46.275    21698285.019 6  88850849.571 6     -1504.408          41.515                                                                  
> 2020 06 11 13 26 49.0000000  0 11      -0.000000000000
G20  21282809.952 7 111841918.715 7        14.298          47.200    21282808.747 6  87149547.652 6        11.141          40.653                                                                  
G27  20469205.076 8 107566399.981 8      1004.594          50.138    20469206.144 8  83817973.279 8       782.800          50.024    20469206.721 8  83817975.284 8       782.800          49.326  
G10  22092948.882 8 116099233.290 8      2323.022          49.205    22092949.998 8  90466940.320 8      1810.147          49.091    22092949.896 7  90466942.321 7      1810.147          46.816  
G18  22901224.682 7 120346721.019 7     -3110.690          46.702    22901223.910 6  93776679.112 6     -2423.915          36.891    22901224.370 7  93776675.114 7     -2423.917          44.428  
G07  24433461.486 7 128398717.197 7       767.491          42.973    24433462.348 6 100050948.177 6       598.044          39.251    24433462.930 7 100050949.183 7       598.045          42.773  
G11  24658745.075 7 129582595.684 7      3514.538          46.295    24658746.839 4 100973439.792 4      2738.602          28.956                                                                  
G26  22483543.180 7 118151799.601 7     -3274.712          44.174    22483544.753 7  92066349.053 7     -2551.726          43.986    22483544.849 7  92066327.055 7     -2551.725          43.650  
G15  24865982.014 7 130671603.994 7       677.218          45.926    24865981.813 6 101822037.942 6       527.703          41.637    24865982.115 5 101822050.948 5       527.702          35.897  
G08  22286618.288 7 117116976.740 7      2627.578          42.960    22286621.175 7  91259982.694 7      2047.464          42.677    22286622.234 7  91259992.697 7      2047.463          46.132  
G16  20717401.278 7 108870673.365 7     -1520.545          46.603    20717399.805 6  84834287.576 6     -1184.841          41.371                                                                  
G21  21698653.607 7 114027189.634 7     -1930.620          47.210    21698652.400 6  88852353.935 6     -1504.380          40.805                                                                  
> 2020 06 11 13 26 50.0000000  0 11      -0.000000000000
G20  21282807.373 7 111841905.203 7        12.660          45.400    21282806.181 7  87149537.123 7         9.865          42.883                                                                  
G27  20469014.006 8 107565395.915 8      1003.440          48.667    20469015.072 8  83817190.887 8       781.900          48.441    20469015.652 8  83817192.892 8       781.901          49.389  
G10  22092506.939 7 116096910.857 7      2321.732          47.552    22092508.057 7  90465130.629 7      1809.141          47.100    22092507.952 7  90465132.633 7      1809.142          46.778  
G18  22901816.726 7 120349832.245 7     -3111.827          44.708    22901815.955 6  93779103.437 6     -2424.803          40.231    22901816.408 7  93779099.440 7     -2424.803          44.552  
G07  24433315.539 6 128397950.255 6       766.199          40.698    24433316.409 6 100050350.555 6       597.037          39.098    24433316.963 7 100050351.563 7       597.037          42.926  
G11  24658076.360 7 129579081.465 7      3513.820          44.113    24658078.055 5 100970701.442 5      2738.041          34.055                                                                  
G26  22484166.403 7 118155074.721 7     -3275.540          42.356    22484167.995 6  92068901.087 6     -2552.372          41.806    22484168.066 7  92068879.092 7     -2552.371          43.675  
G15  24865853.255 7 130670927.331 7       675.936          43.794    24865853.050 7 101821510.669 7       526.704          42.663    24865853.339 5 101821523.674 5       526.702          35.979  
G08  22286118.306 6 117114349.373 6      2626.900          40.962    22286121.197 6  91257935.395 6      2046.935          40.342    22286122.249 7  91257945.397 7      2046.935          46.194  
G16  20717690.749 7 108872194.592 7     -1521.928          44.667    20717689.282 7  84835472.946 7     -1185.919          43.172                                                                  
G21  21699021.095 7 114029120.781 7     -1931.763          45.331    21699019.880 7  88853858.724 7     -1505.271          43.082                                                                  
> 2020 06 11 13 26 51.0000000  0 11      -0.000000000000
G20  21282805.059 7 111841893.076 7        11.399          46.878    21282803.884 6  87149527.674 6         8.882          41.555                                                                  
G27  20468823.166 8 107564393.017 8      1002.212          49.783    20468824.223 8  83816409.407 8       780.944          49.469    20468824.809 8  83816411.412 8       780.944          49.466  
G10  22092065.240 8 116094589.657 8      2320.491          48.697    22092066.345 8  90463321.901 8      1808.174          49.208    22092066.239 7  90463323.908 7      1808.175          46.723  
G18  22902408.940 7 120352944.417 7     -3112.782          46.336    22902408.187 6  93781528.496 6     -2425.549          37.378    22902408.624 7  93781524.505 7     -2425.547          44.584  
G07  24433169.854 7 128397184.667 7       764.698          42.340    24433170.684 6 100049753.990 6       595.868          37.369    24433171.276 7 100049755.000 7       595.868          42.801  
G11  24657407.796 7 129575568.060 7      3513.042          45.700    24657409.499 5 100967963.717 5      2737.436          32.116                                                                  
G26  22484789.836 7 118158350.913 7     -3276.764          43.876    22484791.435 7  92071453.962 7     -2553.325          44.085    22484791.504 7  92071431.968 7     -2553.324          43.794  
G15  24865724.758 7 130670252.010 7       674.651          45.450    24865724.540 7 101820984.444 7       525.702          42.833    24865724.846 6 101820997.447 6       525.700          36.323  
G08  22285618.497 7 117111722.962 7      2625.758          42.590    22285621.402 7  91255888.839 7      2046.045          44.018    22285622.471 7  91255898.842 7      2046.045          46.347  
G16  20717980.491 7 108873717.184 7     -1523.371          46.182    20717979.016 7  84836659.381 7     -1187.043          42.252                                                                  
G21  21699388.779 7 114031052.937 7     -1932.820          46.733    21699387.564 6  88855364.301 6     -1506.094          41.697                                                                  
> 2020 06 11 13 26 52.0000000  0 11      -0.000000000000
G20  21282802.804 7 111841881.291 7        11.783          47.575    21282801.641 6  87149518.491 6         9.182          40.582                                                                  
G27  20468632.337 8 107563390.181 8      1002.841          50.341    20468633.389 8  83815627.976 8       781.434          50.356    20468633.968 8  83815629.982 8       781.434          49.425  
G10  22091623.566 8 116092268.613 8      2321.177          49.331    22091624.664 8  90461513.295 8      1808.709          49.449    22091624.554 7  90461515.304 7      1808.710          46.731  
G18  22903001.134 7 120356056.417 7     -3111.862          46.859    22903000.383 6  93783953.429 6     -2424.831          36.068    22903000.834 7  93783949.439 7     -2424.829          44.647  
G07  24433024.222 7 128396419.317 7       765.326          43.109    24433025.013 6 100049157.613 6       596.357          38.261    24433025.631 7 100049158.624 7       596.358          43.012  
G11  24656739.182 7 129572054.383 7      3513.977          46.345    24656740.844 5 100965225.784 5      2738.164          31.670                                                                  
G26  22485413.256 7 118161627.076 7     -3276.232          44.401    22485414.868 7  92074006.817 7     -2552.910          44.033    22485414.929 7  92073984.824 7     -2552.909          43.843  
G15  24865596.321 7 130669576.967 7       674.894          46.218    24865596.087 6 101820458.437 6       525.892          41.935    24865596.360 6 101820471.439 6       525.891          36.384  
G08  22285118.664 7 117109096.394 7      2626.557          43.413    22285121.576 7  91253842.162 7      2046.667          43.985    22285122.656 7  91253852.165 7      2046.667          46.400  
G16  20718270.267 7 108875240.013 7     -1522.932          46.936    20718268.815 7  84837846.004 7     -1186.700          42.377                                                                  
G21  21699756.450 7 114032984.992 7     -1931.832          47.453    21699755.225 6  88856869.795 6     -1505.325          40.572                                                                  
> 2020 06 11 13 26 53.0000000  0 11      -0.000000000000
G20  21282800.635 7 111841869.953 7        10.915          45.115    21282799.487 7  87149509.661 7         8.506          43.179                                                                  
G27  20468441.543 8 107562387.554 8      1002.276          48.623    20468442.592 8  83814846.711 8       780.994          48.584    20468443.180 8  83814848.716 8       780.995          49.440  
G10  22091181.945 7 116089947.848 7      2320.340          47.292    22091183.041 7  90459704.910 7      1808.058          47.346    22091182.937 7  90459706.920 7      1808.059          46.659  
G18  22903593.320 7 120359168.414 7     -3112.144          44.341    22903592.582 6  93786378.369 6     -2425.048          39.706    22903593.031 7  93786374.374 7     -2425.048          44.608  
G07  24432878.660 6 128395654.368 6       764.431          40.644    24432879.457 6 100048561.552 6       595.661          40.623    24432880.065 7 100048562.563 7       595.661          43.195  
G11  24656070.522 7 129568540.565 7      3513.582          43.885    24656072.193 5 100962487.741 5      2737.857          35.042                                                                  
G26  22486036.691 6 118164903.310 6     -3276.537          41.924    22486038.311 6  92076559.729 6     -2553.146          41.770    22486038.373 7  92076537.738 7     -2553.146          44.024  
G15  24865467.953 7 130668902.305 7       674.197          43.801    24865467.713 7 101819932.730 7       525.349          43.709    24865467.963 6 101819945.732 6       525.348          36.177  
G08  22284618.841 6 117106469.820 6      2626.469          40.569    22284621.750 6  91251795.482 6      2046.599          40.031    22284622.824 7  91251805.486 7      2046.599          46.353  
G16  20718560.126 7 108876763.240 7     -1523.686          44.507    20718558.675 7  84839032.938 7     -1187.287          43.681                                                                  
G21  21700124.143 7 114034917.119 7     -1932.342          45.266    21700122.896 7  88858375.350 7     -1505.721          42.899                                                                  
> 2020 06 11 13 26 54.0000000  0 11      -0.000000000000
G20  21282798.532 7 111841858.994 7        10.722          44.646    21282797.397 7  87149501.121 7         8.355          43.336                                                                  
G27  20468250.769 8 107561385.041 8      1002.315          48.060    20468251.818 7  83814065.535 7       781.025          47.941    20468252.403 8  83814067.540 8       781.026          49.438  
G10  22090740.364 7 116087627.275 7      2320.352          46.802    22090741.449 7  90457896.675 7      1808.068          46.646    22090741.353 7  90457898.685 7      1808.068          46.652  
G18  22904185.490 7 120362280.317 7     -3111.965          43.840    22904184.744 6  93788803.232 6     -2424.908          39.709    22904185.212 7  93788799.235 7     -2424.908          44.620  
G07  24432733.156 6 128394889.718 6       764.254          40.172    24432733.968 6 100047965.724 6       595.523          39.390    24432734.557 7 100047966.735 7       595.524          43.144  
G11  24655401.839 7 129565026.531 7      3514.006          43.303    24655403.524 6 100959749.547 6      2738.189          36.751                                                                  
G26  22486660.147 6 118168179.581 6     -3276.664          41.305    22486661.767 6  92079112.671 6     -2553.245          41.081    22486661.812 7  92079090.678 7     -2553.244          43.912  
G15  24865339.633 7 130668227.957 7       674.082          43.109    24865339.394 7 101819407.267 7       525.260          42.952    24865339.635 6 101819420.271 6       525.259          36.250  
G08  22284118.996 6 117103843.196 6      2626.499          40.243    22284121.914 6  91249748.766 6      2046.624          40.222    22284122.997 7  91249758.771 7      2046.624          46.373  
G16  20718850.041 7 108878286.778 7     -1523.727          43.883    20718848.603 7  84840220.112 7     -1187.319          43.150                                                                  
G21  21700491.813 7 114036849.202 7     -1932.042          44.734    21700490.565 7  88859880.871 7     -1505.487          43.518                                                                  
> 2020 06 11 13 26 55.0000000  0 11      -0.000000000000
G20  21282796.633 7 111841849.006 7         9.275          45.607    21282795.509 7  87149493.337 7         7.228          42.254                                                                  
G27  20468060.134 8 107560383.249 8      1001.041          48.983    20468061.180 8  83813284.919 8       780.033          48.808    20468061.769 8  83813286.925 8       780.033          49.429  
G10  22090298.922 7 116085307.499 7      2319.072          47.705    22090300.011 8  90456089.060 8      1807.070          48.014    22090299.915 7  90456091.068 7      1807.071          46.733  
G18  22904777.752 7 120365392.706 7     -3112.939          44.889    22904777.015 6  93791228.471 6     -2425.667          38.688    22904777.477 7  93791224.472 7     -2425.667          44.727  
G07  24432587.842 6 128394125.978 6       762.924          41.261    24432588.660 6 100047370.606 6       594.487          39.527    24432589.224 7 100047371.613 7       594.487          43.149  
G11  24654733.215 7 129561512.865 7      3512.906          44.319    24654734.892 5 100957011.624 5      2737.331          32.386                                                                  
G26  22487283.697 7 118171456.432 7     -3277.433          42.544    22487285.326 7  92081666.062 7     -2553.844          42.646    22487285.380 7  92081644.069 7     -2553.843          44.039  
G15  24865211.497 7 130667554.517 7       672.634          44.334    24865211.250 7 101818882.508 7       524.131          43.389    24865211.511 6 101818895.517 6       524.132          36.530  
G08  22283619.254 6 117101217.100 6      2625.165          41.250    22283622.183 6  91247702.459 6      2045.584          40.918    22283623.263 7  91247712.464 7      2045.584          46.435  
G16  20719140.116 7 108879811.236 7     -1525.348          45.002    20719138.695 7  84841408.002 7     -1188.582          42.900                                                                  
G21  21700859.592 7 114038781.868 7     -1933.322          45.749    21700858.345 7  88861386.845 7     -1506.484          42.239                                                                  
> 2020 06 11 13 26 56.0000000  0 11      -0.000000000000
G20  21282794.966 7 111841840.299 7         8.232          46.610    21282793.853 6  87149486.556 6         6.416          41.845                                                                  
G27  20467869.700 8 107559382.489 8      1000.264          49.755    20467870.742 8  83812505.107 8       779.428          49.469    20467871.328 8  83812507.111 8       779.428          49.557  
G10  22089857.698 8 116082988.844 8      2317.950          48.699    22089858.784 8  90454282.317 8      1806.197          48.578    22089858.705 7  90454284.323 7      1806.196          46.778  
G18  22905370.170 7 120368505.933 7     -3113.764          45.802    22905369.456 6  93793654.361 6     -2426.310          38.954    22905369.908 7  93793650.363 7     -2426.310          44.817  
G07  24432442.745 7 128393363.453 7       761.872          42.537    24432443.561 6 100046776.436 6       593.669          39.694    24432444.113 7 100046777.437 7       593.667          43.218  
G11  24654064.724 7 129557999.871 7      3512.540          45.439    24654066.400 5 100954274.227 5      2737.047          31.756                                                                  
G26  22487907.439 7 118174734.236 7     -3278.430          43.143    22487909.070 7  92084220.194 7     -2554.621          42.859    22487909.133 7  92084198.201 7     -2554.621          43.965  
G15  24865083.589 7 130666882.292 7       671.626          45.222    24865083.332 7 101818358.699 7       523.346          43.045    24865083.627 6 101818371.708 6       523.347          36.256  
G08  22283119.659 7 117098591.816 7      2624.610          42.312    22283122.606 6  91245656.782 6      2045.152          41.708    22283123.689 7  91245666.788 7      2045.152          46.447  
G16  20719430.428 7 108881336.884 7     -1526.189          45.979    20719429.014 7  84842596.817 7     -1189.238          43.142                                                                  
G21  21701227.544 7 114040715.415 7     -1934.130          46.811    21701226.300 7  88862893.505 7     -1507.114          42.394                                                                  
> 2020 06 11 13 26 57.0000000  0 11      -0.000000000000
G20  21282793.499 7 111841832.628 7         7.009          47.297    21282792.395 6  87149480.581 6         5.463          41.338                                                                  
G27  20467679.397 8 107558382.485 8       999.902          50.219    20467680.448 8  83811725.883 8       779.145          50.446    20467681.030 8  83811727.887 8       779.145          49.534  
G10  22089416.633 8 116080671.016 8      2317.435          49.224    22089417.716 8  90452476.217 8      1805.794          49.252    22089417.640 7  90452478.222 7      1805.794          46.817  
G18  22905962.682 7 120371619.663 7     -3113.878          46.588    22905962.002 6  93796080.646 6     -2426.398          38.198    22905962.423 7  93796076.645 7     -2426.399          44.786  
G07  24432297.834 7 128392601.878 7       761.068          43.294    24432298.641 6 100046182.995 6       593.040          38.964    24432299.197 7 100046184.001 7       593.040          43.269  
G11  24653396.311 7 129554487.301 7      3512.358          46.074    24653398.001 5 100951537.162 5      2736.904          32.600                                                                  
G26  22488531.306 7 118178012.671 7     -3278.660          44.182    22488532.938 7  92086774.817 7     -2554.801          44.501    22488533.005 7  92086752.822 7     -2554.802          43.991  
G15  24864955.854 7 130666211.032 7       670.894          45.995    24864955.592 7 101817835.643 7       522.777          42.279    24864955.897 6 101817848.650 6       522.777          36.199  
G08  22282620.177 7 117095967.106 7      2624.374          43.267    22282623.136 7  91243611.554 7      2044.967          42.804    22282624.227 7  91243621.561 7      2044.968          46.556  
G16  20719720.942 7 108882863.516 7     -1527.030          46.569    20719719.531 7  84843786.398 7     -1189.893          42.705                                                                  
G21  21701595.620 7 114042649.552 7     -1934.429          47.565    21701594.358 6  88864400.625 6     -1507.347          41.563                                                                  
> 2020 06 11 13 26 58.0000000  0 11      -0.000000000000
G20  21282792.135 7 111841825.561 7         6.680          45.776    21282791.043 7  87149475.073 7         5.207          43.188                                                                  
G27  20467489.181 8 107557382.897 8       999.167          49.047    20467490.232 8  83810946.983 8       778.572          49.123    20467490.815 8  83810948.986 8       778.572          49.611  
G10  22088975.656 7 116078353.667 7      2316.823          47.843    22088976.738 7  90450670.490 7      1805.317          47.823    22088976.674 7  90450672.494 7      1805.317          46.900  
G18  22906555.238 7 120374733.589 7     -3114.076          44.771    22906554.554 6  93798507.079 6     -2426.553          39.796    22906554.975 7  93798503.078 7     -2426.554          44.856  
G07  24432153.024 6 128391840.866 6       760.522          41.603    24432153.820 6 100045589.995 6       592.614          40.508    24432154.366 7 100045591.003 7       592.614          43.133  
G11  24652727.911 7 129550974.780 7      3512.253          44.542    24652729.592 5 100948800.138 5      2736.824          35.662                                                                  
G26  22489155.212 7 118181291.409 7     -3278.906          42.625    22489156.858 7  92089329.675 7     -2554.993          42.707    22489156.932 7  92089307.677 7     -2554.993          44.016  
G15  24864828.237 7 130665540.351 7       670.212          44.355    24864827.949 7 101817313.033 7       522.244          44.208    24864828.254 6 101817326.041 6       522.245          36.376  
G08  22282120.741 6 117093342.597 6      2624.081          41.327    22282123.702 6  91241566.481 6      2044.739          40.849    22282124.801 7  91241576.486 7      2044.739          46.639  
G16  20720011.556 7 108884390.709 7     -1527.665          44.944    20720010.147 7  84844976.416 7     -1190.389          43.592                                                                  
G21  21701963.723 7 114044583.933 7     -1934.743          45.934    21701962.469 7  88865907.931 7     -1507.593          43.169                                                                  
> 2020 06 11 13 26 59.0000000  0 11      -0.000000000000
G20  21282790.983 7 111841819.518 7         5.369          43.628    21282789.907 6  87149470.367 6         4.185          41.717                                                                  
G27  20467299.106 7 107556384.044 7       998.125          47.356    20467300.153 7  83810168.654 7       777.760          47.373    20467300.739 8  83810170.657 8       777.760          49.637  
G10  22088534.833 7 116076037.129 7      2315.838          45.974    22088535.916 7  90448865.394 7      1804.550          46.163    22088535.859 7  90448867.398 7      1804.549          46.874  
G18  22907147.893 7 120377848.030 7     -3114.955          42.893    22907147.213 6  93800933.908 6     -2427.240          38.887    22907147.629 7  93800929.912 7     -2427.240          44.878  
G07  24432008.365 6 128391080.801 6       759.292          39.713    24432009.174 6 100044997.729 6       591.654          38.185    24432009.729 7 100044998.743 7       591.656          43.107  
G11  24652059.587 7 129547462.649 7      3511.570          42.447    24652061.205 5 100946063.416 5      2736.290          34.286                                                                  
G26  22489779.245 6 118184570.772 6     -3280.039          40.176    22489780.899 6  92091885.017 6     -2555.876          40.575    22489780.970 7  92091863.019 7     -2555.877          44.046  
G15  24864700.792 7 130664870.601 7       668.970          42.281    24864700.482 6 101816791.149 6       521.277          41.586    24864700.826 6 101816804.160 6       521.277          36.937  
G08  22281621.397 6 117090718.610 6      2623.185          39.019    22281624.362 6  91239521.816 6      2044.041          39.435    22281625.478 7  91239531.820 7      2044.041          46.689  
G16  20720302.340 7 108885918.844 7     -1528.965          42.922    20720300.946 6  84846167.167 6     -1191.402          41.838                                                                  
G21  21702331.944 7 114046518.905 7     -1935.564          43.979    21702330.675 6  88867415.701 6     -1508.232          41.989                                                                  
> 2020 06 11 13 27  0.0000000  0 11      -0.000000000000
G20  21282789.992 7 111841814.364 7         5.272          46.146    21282788.925 7  87149466.353 7         4.110          42.864                                                                  
G27  20467109.150 8 107555385.824 8       998.283          49.433    20467110.197 8  83809390.822 8       777.884          49.467    20467110.783 8  83809392.826 8       777.884          49.624  
G10  22088094.151 8 116073721.311 8      2315.887          48.355    22088095.233 8  90447060.863 8      1804.589          48.230    22088095.170 7  90447062.865 7      1804.588          47.062  
G18  22907740.626 7 120380962.885 7     -3114.616          45.444    22907739.968 6  93803361.072 6     -2426.974          39.386    22907740.377 7  93803357.072 7     -2426.975          44.957  
G07  24431863.897 7 128390321.558 7       759.167          42.256    24431864.697 6 100044406.108 6       591.557          40.918    24431865.258 7 100044407.126 7       591.559          43.302  
G11  24651391.313 7 129543950.811 7      3512.173          45.139    24651392.961 5 100943326.920 5      2736.762          33.010                                                                  
G26  22490403.385 7 118187850.672 7     -3279.707          43.264    22490405.034 7  92094440.782 7     -2555.617          43.078    22490405.104 7  92094418.783 7     -2555.618          43.846  
G15  24864573.505 7 130664201.675 7       669.038          44.961    24864573.178 7 101816269.912 7       521.330          43.928    24864573.531 6 101816282.922 6       521.330          36.314  
G08  22281122.136 6 117088095.056 6      2623.785          41.819    22281125.114 6  91237477.491 6      2044.509          41.429    22281126.232 7  91237487.495 7      2044.508          46.780  
G16  20720593.270 7 108887447.808 7     -1528.928          45.554    20720591.906 7  84847358.568 7     -1191.374          43.765                                                                  
G21  21702700.259 7 114048454.364 7     -1935.059          46.584    21702698.978 7  88868923.850 7     -1507.839          42.930                                                                  
> 2020 06 11 13 27  1.0000000  0 11      -0.000000000000
G20  21282789.025 7 111841809.320 7         4.713          46.435    21282787.971 7  87149462.425 7         3.674          42.688                                                                  
G27  20466919.173 8 107554387.455 8       998.102          49.682    20466920.213 8  83808612.873 8       777.742          49.640    20466920.799 8  83808614.876 8       777.742          49.645  
G10  22087653.452 8 116071405.432 8      2315.499          48.614    22087654.537 8  90445256.283 8      1804.285          48.627    22087654.477 7  90445258.286 7      1804.285          47.134  
G18  22908333.279 7 120384077.393 7     -3114.536          45.642    22908332.649 6  93805787.964 6     -2426.911          38.982    22908333.028 7  93805783.961 7     -2426.912          44.932  
G07  24431719.431 7 128389562.357 7       758.789          42.695    24431720.223 6 100043814.525 6       591.262          39.542    24431720.781 7 100043815.540 7       591.264          43.512  
G11  24650722.951 7 129540438.485 7      3512.277          45.406    24650724.562 5 100940590.043 5      2736.839          31.156                                                                  
G26  22491027.474 7 118191130.310 7     -3279.746          43.627    22491029.125 7  92096996.342 7     -2555.648          43.680    22491029.202 7  92096974.345 7     -2555.648          43.807  
G15  24864446.240 7 130663532.813 7       668.390          45.057    24864445.879 7 101815748.722 7       520.825          43.516    24864446.210 6 101815761.735 6       520.825          37.024  
G08  22280622.817 7 117085471.161 7      2623.754          42.242    22280625.804 7  91235432.900 7      2044.485          42.075    22280626.930 7  91235442.903 7      2044.485          46.770  
G16  20720884.228 7 108888976.813 7     -1529.249          45.691    20720882.865 7  84848549.999 7     -1191.624          43.249                                                                  
G21  21703068.519 7 114050389.539 7     -1935.272          46.827    21703067.244 7  88870431.777 7     -1508.005          42.566                                                                  
> 2020 06 11 13 27  2.0000000  0 11      -0.000000000000
G20  21282788.107 7 111841804.570 7         4.552          45.318    21282787.051 7  87149458.718 7         3.547          43.238                                                                  
G27  20466729.208 8 107553389.173 8       997.814          48.736    20466730.244 8  83807834.988 8       777.517          48.788    20466730.831 8  83807836.991 8       777.517          49.638  
G10  22087212.783 7 116069089.675 7      2315.490          47.443    22087213.866 7  90443451.794 7      1804.278          47.650    22087213.800 7  90443453.798 7      1804.277          47.203  
G18  22908925.904 7 120387191.713 7     -3114.372          44.287    22908925.288 6  93808214.697 6     -2426.786          40.266    22908925.661 7  93808210.700 7     -2426.786          45.021  
G07  24431575.001 6 128388803.394 6       758.495          41.219    24431575.795 6 100043223.122 6       591.033          38.993    24431576.346 7 100043224.137 7       591.034          43.370  
G11  24650054.536 7 129536925.857 7      3512.537          44.314    24650056.126 5 100937852.919 5      2737.041          34.888                                                                  
G26  22491651.548 7 118194409.893 7     -3279.666          42.247    22491653.202 7  92099551.858 7     -2555.586          42.843    22491653.279 7  92099529.861 7     -2555.586          43.934  
G15  24864319.001 7 130662864.159 7       668.370          43.818    24864318.621 7 101815227.688 7       520.807          43.794    24864318.979 6 101815240.700 6       520.808          36.740  
G08  22280123.476 6 117082847.130 6      2623.965          40.856    22280126.460 6  91233388.198 6      2044.648          41.129    22280127.597 7  91233398.201 7      2044.648          46.818  
G16  20721175.233 7 108890506.064 7     -1529.765          44.577    20721173.869 7  84849741.618 7     -1192.027          44.242                                                                  
G21  21703436.749 7 114052324.610 7     -1935.209          45.453    21703435.468 7  88871939.623 7     -1507.957          43.664                                                                  
> 2020 06 11 13 27  3.0000000  0 11      -0.000000000000
G20  21282787.270 7 111841800.288 7         3.807          45.375    21282786.249 7  87149455.379 7         2.966          43.384                                                                  
G27  20466539.272 8 107552391.044 8       997.854          48.802    20466540.307 8  83807057.222 8       777.548          48.690    20466540.889 8  83807059.225 8       777.547          49.695  
G10  22086772.174 7 116066774.200 7      2315.104          47.569    22086773.252 7  90441647.526 7      1803.977          47.570    22086773.181 7  90441649.530 7      1803.977          47.269  
G18  22909518.523 7 120390306.020 7     -3114.548          44.303    22909517.926 6  93810641.424 6     -2426.924          39.979    22909518.301 7  93810637.429 7     -2426.923          45.098  
G07  24431430.648 6 128388044.803 6       757.975          41.291    24431431.448 6 100042632.011 6       590.629          39.198    24431432.007 7 100042633.021 7       590.628          43.516  
G11  24649386.088 7 129533413.076 7      3512.597          44.360    24649387.666 5 100935115.687 5      2737.086          34.415                                                                  
G26  22492275.648 7 118197689.591 7     -3280.114          42.365    22492277.294 7  92102107.462 7     -2555.936          42.396    22492277.388 7  92102085.465 7     -2555.936          43.972  
G15  24864191.852 7 130662195.922 7       667.795          43.902    24864191.426 7 101814706.981 7       520.359          43.893    24864191.829 6 101814719.991 6       520.359          37.132  
G08  22279624.127 6 117080223.081 6      2623.784          41.021    22279627.110 6  91231343.481 6      2044.507          41.850    22279628.251 7  91231353.484 7      2044.507          46.795  
G16  20721466.302 7 108892035.698 7     -1530.087          44.528    20721464.948 7  84850933.536 7     -1192.278          43.985                                                                  
G21  21703805.009 7 114054259.720 7     -1935.388          45.740    21703803.705 7  88873447.496 7     -1508.096          43.732                                                                  
> 2020 06 11 13 27  4.0000000  0 11      -0.000000000000
G20  21282786.533 7 111841796.548 7         3.012          45.393    21282785.536 7  87149452.466 7         2.347          43.118                                                                  
G27  20466349.391 8 107551393.228 8       997.437          48.829    20466350.425 8  83806279.702 8       777.223          48.913    20466351.016 8  83806281.705 8       777.223          49.671  
G10  22086331.622 7 116064459.077 7      2314.734          47.741    22086332.699 7  90439843.536 7      1803.689          47.801    22086332.627 7  90439845.540 7      1803.689          47.127  
G18  22910111.161 7 120393420.388 7     -3114.677          44.424    22910110.598 6  93813068.198 6     -2427.024          40.566    22910110.940 7  93813064.207 7     -2427.023          45.045  
G07  24431286.392 6 128387286.703 6       757.195          41.287    24431287.171 6 100042041.288 6       590.022          40.566    24431287.731 7 100042042.293 7       590.020          43.440  
G11  24648717.634 7 129529900.246 7      3512.527          44.551    24648719.201 5 100932378.413 5      2737.033          34.660                                                                  
G26  22492899.773 7 118200969.436 7     -3280.236          42.410    22492901.420 7  92104663.182 7     -2556.030          42.562    22492901.507 7  92104641.186 7     -2556.030          43.849  
G15  24864064.788 7 130661528.146 7       667.144          43.998    24864064.347 7 101814186.636 7       519.852          43.586    24864064.758 6 101814199.645 6       519.852          37.304  
G08  22279124.799 6 117077599.108 6      2623.731          41.025    22279127.779 6  91229298.828 6      2044.466          41.123    22279128.924 7  91229308.831 7      2044.466          46.787  
G16  20721757.454 7 108893565.784 7     -1530.368          44.549    20721756.109 7  84852125.810 7     -1192.496          44.173                                                                  
G21  21704173.292 7 114056194.972 7     -1935.560          45.744    21704171.975 7  88874955.482 7     -1508.230          43.380                                                                  
> 2020 06 11 13 27  5.0000000  0 11      -0.000000000000
G20  21282785.886 7 111841793.289 7         3.344          45.333    21282784.919 7  87149449.929 7         2.606          43.334                                                                  
G27  20466159.554 8 107550395.650 8       997.818          48.754    20466160.592 8  83805502.367 8       777.520          48.735    20466161.188 8  83805504.369 8       777.519          49.701  
G10  22085891.136 7 116062144.290 7      2314.947          47.569    22085892.210 7  90438039.805 7      1803.855          47.631    22085892.143 7  90438041.810 7      1803.855          47.136  
G18  22910703.790 7 120396534.778 7     -3114.077          44.300    22910703.252 6  93815494.992 6     -2426.557          39.797    22910703.589 7  93815490.999 7     -2426.557          44.997  
G07  24431142.227 6 128386529.005 6       757.589          41.269    24431143.008 6 100041450.870 6       590.328          39.468    24431143.545 7 100041451.879 7       590.328          43.446  
G11  24648049.138 7 129526387.295 7      3513.464          44.540    24648050.729 5 100929641.051 5      2737.763          33.890                                                                  
G26  22493523.917 7 118204249.425 7     -3279.718          42.276    22493525.570 7  92107219.018 7     -2555.626          42.784    22493525.671 7  92107197.021 7     -2555.626          44.095  
G15  24863937.804 7 130660860.792 7       667.604          43.872    24863937.347 7 101813666.625 7       520.211          44.056    24863937.752 6 101813679.630 6       520.210          36.861  
G08  22278625.478 6 117074975.163 6      2624.433          40.905    22278628.453 6  91227254.194 6      2045.012          40.689    22278629.592 7  91227264.197 7      2045.012          46.871  
G16  20722048.699 7 108895096.332 7     -1530.258          44.547    20722047.368 7  84853318.446 7     -1192.410          44.151                                                                  
G21  21704541.587 7 114058130.301 7     -1934.951          45.754    21704540.251 7  88876463.527 7     -1507.756          43.438                                                                  
> 2020 06 11 13 27  6.0000000  0 11      -0.000000000000
G20  21282785.221 7 111841789.944 7         3.117          45.317    21282784.287 7  87149447.324 7         2.430          42.619                                                                  
G27  20465969.647 8 107549397.721 8       997.941          48.856    20465970.692 8  83804724.759 8       777.615          48.938    20465971.280 8  83804726.761 8       777.615          49.796  
G10  22085450.592 7 116059829.223 7      2314.979          47.691    22085451.667 7  90436235.855 7      1803.879          47.618    22085451.595 7  90436237.861 7      1803.880          47.182  
G18  22911296.318 7 120399648.592 7     -3113.646          44.439    22911295.812 6  93817921.333 6     -2426.221          40.543    22911296.140 7  93817917.341 7     -2426.221          45.298  
G07  24430998.020 6 128385771.123 6       757.767          41.268    24430998.802 6 100040860.312 6       590.467          40.248    24430999.332 7 100040861.323 7       590.467          43.591  
G11  24647380.525 7 129522873.656 7      3513.856          44.638    24647382.108 5 100926903.151 5      2738.069          34.544                                                                  
G26  22494147.971 7 118207528.962 7     -3279.683          42.432    22494149.633 7  92109774.501 7     -2555.599          42.314    22494149.743 7  92109752.506 7     -2555.598          44.056  
G15  24863810.796 7 130660193.304 7       667.331          44.056    24863810.322 7 101813146.503 7       519.999          43.904    24863810.736 6 101813159.511 6       519.998          36.925  
G08  22278126.060 6 117072350.723 6      2624.144          40.951    22278129.040 6  91225209.174 6      2044.787          40.724    22278130.176 7  91225219.179 7      2044.787          46.897  
G16  20722339.904 7 108896626.705 7     -1530.572          44.677    20722338.580 7  84854510.942 7     -1192.656          44.041                                                                  
G21  21704909.788 7 114060065.140 7     -1934.860          45.897    21704908.432 7  88877971.191 7     -1507.686          43.354                                                                  
> 2020 06 11 13 27  7.0000000  0 11      -0.000000000000
G20  21282784.592 7 111841786.747 7         2.725          45.477    21282783.681 7  87149444.834 7         2.124          43.290                                                                  
G27  20465779.718 8 107548399.685 8       997.708          48.937    20465780.770 8  83803947.069 8       777.434          48.969    20465781.356 8  83803949.071 8       777.434          49.791  
G10  22085010.050 7 116057514.137 7      2314.681          47.851    22085011.122 7  90434431.892 7      1803.648          47.810    22085011.049 7  90434433.901 7      1803.648          47.227  
G18  22911888.795 7 120402762.099 7     -3113.860          44.441    22911888.274 6  93820347.440 6     -2426.388          39.436    22911888.628 7  93820343.448 7     -2426.387          45.041  
G07  24430853.826 6 128385013.354 6       757.350          41.656    24430854.600 6 100040269.841 6       590.142          41.144    24430855.146 7 100040270.856 7       590.143          43.629  
G11  24646711.831 7 129519359.560 7      3513.996          44.742    24646713.436 5 100924164.899 5      2738.180          34.488                                                                  
G26  22494771.990 7 118210808.282 7     -3279.630          42.573    22494773.646 7  92112329.816 7     -2555.557          42.276    22494773.767 7  92112307.821 7     -2555.557          44.169  
G15  24863683.788 7 130659525.902 7       666.890          43.969    24863683.292 7 101812626.451 7       519.655          43.737    24863683.680 6 101812639.460 6       519.655          36.768  
G08  22277626.565 6 117069725.939 6      2624.416          40.956    22277629.556 6  91223163.890 6      2044.999          40.501    22277630.692 7  91223173.894 7      2044.999          47.004  
G16  20722631.131 7 108898157.163 7     -1530.826          44.747    20722629.804 7  84855703.507 7     -1192.852          44.249                                                                  
G21  21705277.915 7 114061999.698 7     -1934.833          45.963    21705276.562 7  88879478.637 7     -1507.664          43.707                                                                  
> 2020 06 11 13 27  8.0000000  0 11      -0.000000000000
G20  21282784.126 7 111841784.345 7         1.919          45.412    21282783.226 7  87149442.960 7         1.496          43.858                                                                  
G27  20465589.900 8 107547402.208 8       997.011          48.940    20465590.955 8  83803169.815 8       776.891          48.898    20465591.545 8  83803171.817 8       776.891          49.707  
G10  22084569.617 7 116055199.683 7      2313.964          47.745    22084570.695 7  90432628.424 7      1803.089          47.783    22084570.616 7  90432630.432 7      1803.090          47.050  
G18  22912481.326 7 120405875.918 7     -3114.201          44.398    22912480.810 6  93822773.796 6     -2426.652          39.375    22912481.167 7  93822769.800 7     -2426.653          45.111  
G07  24430709.793 6 128384256.329 6       756.410          41.542    24430710.577 6 100039679.952 6       589.410          41.023    24430711.106 7 100039680.968 7       589.411          43.538  
G11  24646043.190 7 129515845.698 7      3513.454          44.809    24646044.763 5 100921426.831 5      2737.760          32.933                                                                  
G26  22495396.104 7 118214088.030 7     -3280.113          42.255    22495397.746 7  92114885.464 7     -2555.933          42.294    22495397.880 7  92114863.470 7     -2555.933          44.068  
G15  24863556.925 7 130658859.234 7       666.050          44.146    24863556.408 7 101812106.969 7       519.000          43.286    24863556.779 6 101812119.978 6       519.000          36.596  
G08  22277127.129 6 117067101.535 6      2623.973          40.986    22277130.148 6  91221118.903 6      2044.655          40.799    22277131.275 7  91221128.905 7      2044.654          46.846  
G16  20722922.497 7 108899688.370 7     -1531.703          44.776    20722921.187 7  84856896.655 7     -1193.536          44.062                                                                  
G21  21705646.134 7 114063934.673 7     -1935.426          45.938    21705644.769 7  88880986.412 7     -1508.125          43.679                                                                  
> 2020 06 11 13 27  9.0000000  0 11      -0.000000000000
G20  21282783.946 7 111841783.430 7         0.014          45.420    21282783.049 7  87149442.249 7         0.011          43.729                                                                  
G27  20465400.322 8 107546405.972 8       995.252          48.982    20465401.378 8  83802393.529 8       775.521          48.956    20465401.962 8  83802395.530 8       775.521          49.750  
G10  22084129.429 7 116052886.525 7      2312.223          47.668    22084130.515 7  90430825.964 7      1801.733          47.668    22084130.425 7  90430827.973 7      1801.734          47.073  
G18  22913074.047 7 120408990.750 7     -3115.600          44.529    22913073.534 6  93825200.943 6     -2427.740          39.988    22913073.912 7  93825196.941 7     -2427.742          45.087  
G07  24430566.030 6 128383500.699 6       754.466          41.527    24430566.784 6 100039091.151 6       587.896          39.783    24430567.309 7 100039092.164 7       587.895          43.551  
G11  24645374.695 7 129512332.702 7      3512.104          44.762    24645376.255 5 100918689.434 5      2736.708          34.641                                                                  
G26  22496020.428 7 118217368.915 7     -3281.652          42.417    22496022.068 7  92117441.996 7     -2557.132          42.572    22496022.210 7  92117420.003 7     -2557.132          44.152  
G15  24863430.342 7 130658193.994 7       664.042          44.157    24863429.808 7 101811588.603 7       517.436          43.814    24863430.121 6 101811601.613 6       517.436          36.862  
G08  22276627.901 6 117064478.122 6      2622.703          40.999    22276630.927 6  91219074.688 6      2043.666          41.174    22276632.049 7  91219084.689 7      2043.665          46.966  
G16  20723214.128 7 108901220.978 7     -1533.625          44.758    20723212.849 7  84858090.896 7     -1195.033          44.438                                                                  
G21  21706014.560 7 114065870.722 7     -1937.112          45.951    21706013.184 7  88882495.022 7     -1509.439          43.821                                                                  
> 2020 06 11 13 27 10.0000000  0 11      -0.000000000000
G20  21282784.068 7 111841784.177 7        -1.432          45.213    21282783.196 7  87149442.835 7        -1.114          43.738                                                                  
G27  20465211.001 8 107545411.123 8       994.317          48.920    20465212.063 8  83801618.324 8       774.793          48.899    20465212.650 8  83801620.326 8       774.793          49.832  
G10  22083689.527 7 116050574.850 7      2311.175          47.621    22083690.617 7  90429024.662 7      1800.917          47.446    22083690.524 7  90429026.670 7      1800.917          47.232  
G18  22913667.004 7 120412106.746 7     -3116.383          44.421    22913666.489 6  93827628.994 6     -2428.350          39.922    22913666.882 7  93827624.991 7     -2428.352          45.110  
G07  24430422.557 6 128382746.641 6       753.389          41.263    24430423.305 6 100038503.578 6       587.058          40.567    24430423.821 7 100038504.589 7       587.057          43.707  
G11  24644706.405 7 129508820.759 7      3511.423          44.752    24644707.959 5 100915952.862 5      2736.176          35.193                                                                  
G26  22496644.990 7 118220651.072 7     -3282.555          42.286    22496646.638 7  92119999.519 7     -2557.836          42.405    22496646.800 7  92119977.525 7     -2557.836          44.281  
G15  24863304.068 7 130657530.330 7       662.840          44.093    24863303.502 7 101811071.465 7       516.500          43.936    24863303.808 6 101811084.474 6       516.500          37.231  
G08  22276128.918 6 117061855.936 6      2621.849          40.940    22276131.937 6  91217031.428 6      2043.001          41.362    22276133.064 7  91217041.431 7      2043.001          47.054  
G16  20723506.078 7 108902755.175 7     -1534.914          44.595    20723504.798 7  84859286.375 7     -1196.037          44.055                                                                  
G21  21706383.221 7 114067808.003 7     -1937.675          45.925    21706381.842 7  88884004.592 7     -1509.877          44.085                                                                  
> 2020 06 11 13 27 11.0000000  0 11      -0.000000000000
G20  21282784.426 7 111841786.103 7        -2.787          45.373    21282783.553 7  87149444.332 7        -2.171          43.256                                                                  
G27  20465021.860 8 107544417.211 8       993.179          48.889    20465022.926 8  83800843.847 8       773.906          48.805    20465023.514 8  83800845.848 8       773.906          49.567  
G10  22083249.819 7 116048264.200 7      2309.821          47.607    22083250.914 7  90427224.157 7      1799.861          47.661    22083250.822 7  90427226.164 7      1799.861          46.889  
G18  22914260.094 7 120415223.485 7     -3117.374          44.390    22914259.588 6  93830057.623 6     -2429.122          39.236    22914259.975 7  93830053.618 7     -2429.124          44.576  
G07  24430279.291 6 128381993.721 6       752.069          41.593    24430280.033 6 100037916.890 6       586.030          40.151    24430280.535 7 100037917.899 7       586.028          43.209  
G11  24644038.222 7 129505309.403 7      3510.770          44.722    24644039.788 5 100913216.731 5      2735.665          33.561                                                                  
G26  22497269.719 7 118223934.077 7     -3283.542          42.456    22497271.375 7  92122557.700 7     -2558.606          42.771    22497271.525 7  92122535.707 7     -2558.606          43.876  
G15  24863177.989 7 130656867.794 7       661.839          44.225    24863177.423 7 101810555.201 7       515.720          43.698    24863177.708 6 101810568.212 6       515.720          36.965  
G08  22275630.072 6 117059234.498 6      2620.957          41.070    22275633.088 6  91214988.751 6      2042.305          41.560    22275634.216 7  91214998.755 7      2042.305          46.638  
G16  20723798.230 7 108904290.503 7     -1536.307          44.643    20723796.974 7  84860482.734 7     -1197.123          43.787                                                                  
G21  21706752.028 7 114069746.098 7     -1938.846          46.063    21706750.656 7  88885514.795 7     -1510.790          43.304                                                                  
> 2020 06 11 13 27 12.0000000  0 11      -0.000000000000
G20  21282784.882 7 111841788.590 7        -2.607          45.454    21282784.015 7  87149446.269 7        -2.031          43.840                                                                  
G27  20464832.785 8 107543423.614 8       993.547          49.074    20464833.847 8  83800069.614 8       774.193          49.183    20464834.437 8  83800071.615 8       774.193          50.169  
G10  22082810.190 7 116045953.912 7      2310.185          47.763    22082811.284 7  90425423.931 7      1800.145          47.729    22082811.193 7  90425425.938 7      1800.145          47.810  
G18  22914853.195 7 120418340.286 7     -3116.609          44.552    22914852.716 6  93832486.295 6     -2428.527          40.266    22914853.085 7  93832482.290 7     -2428.528          45.800  
G07  24430136.123 6 128381241.293 6       752.469          41.628    24430136.874 6 100037330.585 6       586.342          40.954    24430137.357 7 100037331.588 7       586.339          44.218  
G11  24643370.042 7 129501797.998 7      3511.660          44.918    24643371.552 5 100910480.570 5      2736.360          33.737                                                                  
G26  22497894.502 7 118227217.273 7     -3282.886          42.439    22497896.136 7  92125116.028 7     -2558.097          42.316    22497896.280 7  92125094.034 7     -2558.096          44.815  
G15  24863052.021 7 130656205.760 7       662.033          44.377    24863051.432 7 101810039.323 7       515.869          44.092    24863051.745 6 101810052.337 6       515.870          37.597  
G08  22275131.239 6 117056613.153 6      2621.559          41.009    22275134.261 6  91212946.144 6      2042.775          40.554    22275135.389 7  91212956.149 7      2042.775          47.565  
G16  20724090.486 7 108905826.317 7     -1535.896          44.833    20724089.234 7  84861679.469 7     -1196.803          44.426                                                                  
G21  21707120.867 7 114071684.327 7     -1938.162          46.183    21707119.489 7  88887025.102 7     -1510.257          43.935                                                                  
> 2020 06 11 13 27 13.0000000  0 11      -0.000000000000
G20  21282785.289 7 111841790.850 7        -3.216          45.452    21282784.452 7  87149448.033 7        -2.505          43.610                                                                  
G27  20464643.608 8 107542429.511 8       993.478          49.007    20464644.672 8  83799294.987 8       774.139          48.881    20464645.268 8  83799296.989 8       774.139          50.352  
G10  22082370.486 7 116043643.231 7      2309.991          47.731    22082371.578 7  90423623.401 7      1799.994          47.592    22082371.496 7  90423625.408 7      1799.993          47.932  
G18  22915446.171 7 120421456.391 7     -3116.499          44.410    22915445.691 6  93834914.426 6     -2428.442          40.794    22915446.060 7  93834910.423 7     -2428.442          45.888  
G07  24429992.910 6 128380488.578 6       751.861          41.515    24429993.607 6 100036744.055 6       585.866          39.865    24429994.109 7 100036745.057 7       585.866          44.521  
G11  24642701.695 7 129498285.786 7      3511.557          44.822    24642703.176 5 100907743.788 5      2736.279          35.545                                                                  
G26  22498519.157 7 118230499.880 7     -3283.083          42.435    22498520.781 7  92127673.899 7     -2558.250          42.087    22498520.937 7  92127651.905 7     -2558.250          44.888  
G15  24862925.974 7 130655543.434 7       661.569          44.420    24862925.396 7 101809523.224 7       515.508          44.092    24862925.701 6 101809536.238 6       515.508          38.173  
G08  22274632.277 6 117053991.119 6      2621.548          41.072    22274635.302 6  91210903.002 6      2042.766          40.994    22274636.438 7  91210913.007 7      2042.766          47.724  
G16  20724382.683 7 108907361.834 7     -1536.164          44.708    20724381.442 7  84862875.975 7     -1197.011          43.888                                                                  
G21  21707489.595 7 114073621.945 7     -1938.183          46.174    21707488.215 7  88888534.934 7     -1510.273          44.919                                                                  
> 2020 06 11 13 27 14.0000000  0 11      -0.000000000000
G20  21282785.975 7 111841794.562 7        -4.279          46.014    21282785.159 7  87149450.926 7        -3.334          43.714                                                                  
G27  20464454.671 8 107541436.638 8       992.445          49.471    20464455.732 8  83798521.318 8       773.333          49.843    20464456.325 8  83798523.321 8       773.333          50.272  
G10  22081931.021 8 116041333.835 8      2309.017          48.376    22081932.120 8  90421823.872 8      1799.234          48.331    22081932.039 7  90421825.878 7      1799.234          47.927  
G18  22916039.336 7 120424573.487 7     -3117.365          45.062    22916038.852 6  93837343.332 6     -2429.117          39.623    22916039.216 7  93837339.329 7     -2429.117          45.813  
G07  24429849.957 7 128379737.232 7       750.826          42.597    24429850.608 6 100036158.584 6       585.059          40.954    24429851.127 7 100036159.592 7       585.058          44.553  
G11  24642033.511 7 129494774.421 7      3511.322          45.415    24642035.022 5 100905007.664 5      2736.097          33.636                                                                  
G26  22499144.019 7 118233783.577 7     -3283.945          43.548    22499145.642 7  92130232.620 7     -2558.921          43.942    22499145.805 7  92130210.626 7     -2558.921          44.986  
G15  24862800.207 7 130654882.489 7       660.720          45.091    24862799.625 7 101809008.205 7       514.846          44.187    24862799.920 6 101809021.216 6       514.846          38.243  
G08  22274133.507 6 117051370.070 6      2620.812          41.967    22274136.530 7  91208860.627 7      2042.192          42.221    22274137.663 7  91208870.632 7      2042.193          47.728  
G16  20724675.138 7 108908898.751 7     -1537.321          45.329    20724673.913 7  84864073.572 7     -1197.914          44.214                                                                  
G21  21707858.520 7 114075560.606 7     -1938.930          46.879    21707857.151 7  88890045.573 7     -1510.856          43.147                                                                  
> 2020 06 11 13 27 15.0000000  0 11      -0.000000000000
G20  21282786.686 7 111841798.389 7        -3.729          45.479    21282785.898 7  87149453.905 7        -2.906          44.162                                                                  
G27  20464265.706 8 107540443.641 8       993.114          49.078    20464266.766 8  83797747.552 8       773.854          49.006    20464267.365 8  83797749.555 8       773.854          50.279  
G10  22081491.545 7 116039024.401 7      2309.561          47.838    22081492.651 7  90420024.311 7      1799.658          47.555    22081492.576 7  90420026.317 7      1799.657          47.987  
G18  22916632.420 7 120427690.227 7     -3116.516          44.514    22916631.946 6  93839771.959 6     -2428.455          41.883    22916632.325 7  93839767.954 7     -2428.456          45.978  
G07  24429707.028 6 128378985.937 6       751.404          41.385    24429707.639 6 100035573.165 6       585.510          41.006    24429708.154 7 100035574.166 7       585.509          44.433  
G11  24641365.244 7 129491262.597 7      3512.086          44.826    24641366.760 5 100902271.178 5      2736.691          34.848                                                                  
G26  22499768.838 7 118237067.034 7     -3283.241          42.737    22499770.462 7  92132791.156 7     -2558.373          42.670    22499770.632 7  92132769.162 7     -2558.373          45.052  
G15  24862674.454 7 130654221.625 7       660.966          44.443    24862673.874 7 101808493.244 7       515.038          44.007    24862674.167 6 101808506.257 6       515.039          38.553  
G08  22273634.667 6 117048748.719 6      2621.743          41.184    22273637.698 6  91206818.014 6      2042.917          40.911    22273638.838 7  91206828.021 7      2042.917          47.712  
G16  20724967.602 7 108910435.716 7     -1536.825          44.716    20724966.391 7  84865271.206 7     -1197.527          44.511                                                                  
G21  21708227.394 7 114077498.997 7     -1938.302          46.280    21708226.030 7  88891556.004 7     -1510.368          44.714                                                                  
> 2020 06 11 13 27 16.0000000  0 11      -0.000000000000
G20  21282787.346 7 111841801.995 7        -3.814          45.568    21282786.584 7  87149456.715 7        -2.972          44.537                                                                  
G27  20464076.651 8 107539450.136 8       993.495          49.098    20464077.707 8  83796973.392 8       774.151          49.054    20464078.310 8  83796975.394 8       774.151          50.233  
G10  22081051.997 7 116036714.532 7      2309.610          47.847    22081053.098 7  90418224.413 7      1799.696          47.760    22081053.027 7  90418226.419 7      1799.696          47.902  
G18  22917225.368 7 120430806.253 7     -3116.058          44.642    22917224.898 6  93842200.025 6     -2428.100          41.075    22917225.291 7  93842196.021 7     -2428.100          46.120  
G07  24429564.010 6 128378234.382 6       751.212          41.583    24429564.659 6 100034987.530 6       585.360          40.531    24429565.141 7 100034988.536 7       585.359          44.286  
G11  24640696.809 7 129487749.923 7      3512.652          44.839    24640698.305 5 100899534.017 5      2737.130          34.031                                                                  
G26  22500393.530 7 118240349.874 7     -3282.766          42.823    22500395.165 7  92135349.211 7     -2558.002          42.306    22500395.331 7  92135327.219 7     -2558.001          44.810  
G15  24862548.644 7 130653560.454 7       660.935          44.575    24862548.047 7 101807978.044 7       515.013          44.585    24862548.350 6 101807991.057 6       515.014          38.539  
G08  22273135.701 6 117046126.694 6      2621.730          41.110    22273138.742 6  91204774.879 6      2042.907          40.732    22273139.878 7  91204784.885 7      2042.908          47.711  
G16  20725260.029 7 108911972.398 7     -1537.003          44.815    20725258.815 7  84866468.616 7     -1197.666          44.383                                                                  
G21  21708596.140 7 114079436.734 7     -1937.965          46.455    21708594.782 7  88893065.929 7     -1510.104          44.659                                                                  
> 2020 06 11 13 27 17.0000000  0 11      -0.000000000000
G20  21282787.843 7 111841804.719 7        -2.046          44.648    21282787.101 7  87149458.839 7        -1.594          43.925                                                                  
G27  20463887.377 8 107538455.524 8       995.427          48.454    20463888.438 8  83796198.367 8       775.656          48.340    20463889.045 8  83796200.369 8       775.656          50.260  
G10  22080612.246 7 116034403.633 7      2311.619          47.063    22080613.351 7  90416423.710 7      1801.261          46.917    22080613.268 7  90416425.718 7      1801.261          47.871  
G18  22917818.065 7 120433920.940 7     -3113.821          43.771    22917817.611 6  93844627.048 6     -2426.357          41.179    22917817.990 7  93844623.046 7     -2426.357          46.159  
G07  24429420.831 6 128377481.856 6       753.248          40.830    24429421.442 6 100034401.141 6       586.946          41.122    24429421.948 7 100034402.148 7       586.945          44.196  
G11  24640028.110 7 129484235.790 7      3514.970          44.088    24640029.618 5 100896795.734 5      2738.939          35.285                                                                  
G26  22501017.993 7 118243631.510 7     -3280.782          42.104    22501019.632 7  92137906.329 7     -2556.456          42.475    22501019.799 7  92137884.336 7     -2556.456          44.879  
G15  24862422.661 7 130652898.357 7       662.688          43.974    24862422.045 7 101807462.124 7       516.379          43.615    24862422.385 6 101807475.136 6       516.379          37.935  
G08  22272636.481 6 117043503.304 6      2623.974          40.633    22272639.527 6  91202730.677 6      2044.655          40.570    22272640.662 7  91202740.683 7      2044.655          47.664  
G16  20725552.262 7 108913508.125 7     -1535.040          44.185    20725551.057 7  84867665.287 7     -1196.136          43.729                                                                  
G21  21708964.656 7 114081373.197 7     -1935.706          45.804    21708963.285 7  88894574.860 7     -1508.344          45.094                                                                  
> 2020 06 11 13 27 18.0000000  0 11      -0.000000000000
G20  21282788.135 7 111841806.350 7        -1.335          45.145    21282787.412 7  87149460.110 7        -1.040          44.380                                                                  
G27  20463697.844 8 107537459.566 8       996.411          48.834    20463698.911 8  83795422.296 8       776.423          48.870    20463699.521 8  83795424.297 8       776.423          50.216  
G10  22080172.253 7 116032091.448 7      2312.583          47.643    22080173.357 7  90414622.008 7      1802.013          47.536    22080173.277 7  90414624.016 7      1802.013          47.810  
G18  22918410.467 7 120437034.035 7     -3112.443          44.238    22918410.004 6  93847052.832 6     -2425.284          41.304    22918410.395 7  93847048.832 7     -2425.283          45.995  
G07  24429277.420 6 128376728.153 6       754.135          41.282    24429278.026 6 100033813.840 6       587.636          40.832    24429278.525 7 100033814.844 7       587.636          44.225  
G11  24639359.079 7 129480719.947 7      3516.435          44.697    24639360.622 5 100894056.125 5      2740.081          35.882                                                                  
G26  22501642.178 7 118246911.660 7     -3279.774          42.758    22501643.825 7  92140462.290 7     -2555.670          42.297    22501643.973 7  92140440.297 7     -2555.670          44.876  
G15  24862296.453 7 130652235.089 7       663.592          44.367    24862295.823 7 101806945.289 7       517.083          43.907    24862296.154 6 101806958.302 6       517.083          38.133  
G08  22272136.973 6 117040878.376 6      2625.601          40.967    22272140.017 6  91200685.280 6      2045.923          41.106    22272141.147 7  91200695.286 7      2045.923          47.823  
G16  20725844.269 7 108915042.695 7     -1534.275          44.541    20725843.080 7  84868861.053 7     -1195.541          44.572                                                                  
G21  21709332.877 7 114083308.153 7     -1934.584          46.252    21709331.493 7  88896082.618 7     -1507.470          44.550                                                                  
> 2020 06 11 13 27 19.0000000  0 11      -0.000000000000
G20  21282788.192 7 111841806.756 7        -0.254          44.638    21282787.493 7  87149460.425 7        -0.198          43.864                                                                  
G27  20463508.026 8 107536462.104 8       997.944          48.419    20463509.100 8  83794645.050 8       777.618          48.144    20463509.715 8  83794647.051 8       777.617          50.158  
G10  22079731.993 7 116029777.874 7      2313.961          47.090    22079733.098 7  90412819.223 7      1803.086          46.751    22079733.024 7  90412821.230 7      1803.086          47.682  
G18  22919002.537 7 120440145.431 7     -3110.735          43.734    22919002.079 7  93849477.287 7     -2423.954          42.136    22919002.467 7  93849473.294 7     -2423.952          45.891  
G07  24429133.758 6 128375973.185 6       755.174          40.699    24429134.355 6 100033225.551 6       588.446          40.614    24429134.867 7 100033226.554 7       588.445          44.254  
G11  24638689.697 7 129477202.273 7      3518.262          44.102    24638691.289 5 100891315.080 5      2741.503          35.698                                                                  
G26  22502266.050 6 118250190.231 6     -3278.102          41.981    22502267.716 6  92143017.019 6     -2554.367          41.194    22502267.872 7  92142995.028 7     -2554.366          44.876  
G15  24862170.001 7 130651570.527 7       665.062          43.815    24862169.351 7 101806427.448 7       518.229          43.515    24862169.639 6 101806440.459 6       518.229          38.192  
G08  22271637.136 6 117038251.765 6      2627.357          40.326    22271640.189 6  91198638.570 6      2047.292          40.348    22271641.317 7  91198648.577 7      2047.292          47.601  
G16  20726136.021 7 108916575.945 7     -1532.690          43.877    20726134.841 7  84870055.789 7     -1194.306          43.729                                                                  
G21  21709700.773 7 114085241.468 7     -1932.705          45.775    21709699.397 7  88897589.093 7     -1506.006          44.773                                                                  
> 2020 06 11 13 27 20.0000000  0 11      -0.000000000000
G20  21282788.257 7 111841807.175 7        -0.287          44.625    21282787.568 7  87149460.753 7        -0.223          44.512                                                                  
G27  20463318.171 8 107535464.434 8       997.898          48.349    20463319.245 8  83793867.646 8       777.582          48.324    20463319.865 8  83793869.647 8       777.582          50.119  
G10  22079291.698 7 116027464.147 7      2313.874          47.128    22079292.811 7  90411016.320 7      1803.019          46.992    22079292.741 7  90411018.328 7      1803.019          47.681  
G18  22919594.530 7 120443256.387 7     -3110.632          43.812    22919594.086 6  93851901.408 6     -2423.871          40.770    22919594.460 7  93851897.415 7     -2423.871          45.850  
G07  24428990.103 6 128375218.153 6       754.963          40.503    24428990.656 6 100032637.210 6       588.280          39.637    24428991.197 7 100032638.216 7       588.281          44.155  
G11  24638020.209 7 129473684.035 7      3518.674          44.054    24638021.769 6 100888573.598 6      2741.826          36.967                                                                  
G26  22502889.880 6 118253468.460 6     -3278.116          41.793    22502891.547 6  92145571.484 6     -2554.377          41.602    22502891.696 7  92145549.495 7     -2554.376          44.867  
G15  24862043.544 7 130650905.944 7       664.671          43.608    24862042.880 7 101805909.591 7       517.925          43.216    24862043.204 6 101805922.600 6       517.924          37.393  
G08  22271137.227 6 117035624.768 6      2627.317          40.377    22271140.290 6  91196591.560 6      2047.260          39.997    22271141.419 7  91196601.569 7      2047.261          47.566  
G16  20726427.784 7 108918109.195 7     -1533.364          43.779    20726426.611 7  84871250.527 7     -1194.831          43.848                                                                  
G21  21710068.608 7 114087174.418 7     -1932.552          45.711    21710067.219 7  88899095.287 7     -1505.886          44.975                                                                  
> 2020 06 11 13 27 21.0000000  0 11      -0.000000000000
G20  21282788.223 7 111841807.059 7         0.903          44.790    21282787.541 7  87149460.670 7         0.706          44.600                                                                  
G27  20463128.170 8 107534465.975 8       999.487          48.381    20463129.243 8  83793089.627 8       778.821          48.405    20463129.862 8  83793091.627 8       778.821          50.110  
G10  22078851.275 7 116025149.715 7      2315.363          47.127    22078852.390 7  90409212.869 7      1804.180          47.285    22078852.318 7  90409214.877 7      1804.180          47.455  
G18  22920186.323 7 120446366.327 7     -3108.801          43.709    22920185.897 6  93854324.746 6     -2422.443          41.024    22920186.266 7  93854320.744 7     -2422.444          45.872  
G07  24428846.334 6 128374462.501 6       756.644          40.677    24428846.854 6 100032048.383 6       589.589          40.089    24428847.417 7 100032049.394 7       589.591          44.052  
G11  24637350.507 7 129470164.663 7      3520.563          44.122    24637352.028 5 100885831.244 5      2743.301          34.322                                                                  
G26  22503513.531 6 118256745.784 6     -3276.360          41.947    22503515.195 7  92148125.243 7     -2553.009          42.239    22503515.346 7  92148103.257 7     -2553.007          44.781  
G15  24861916.979 7 130650240.748 7       666.038          43.580    24861916.285 7 101805391.258 7       518.991          43.444    24861916.623 6 101805404.265 6       518.990          37.590  
G08  22270637.146 6 117032996.779 6      2628.934          40.383    22270640.200 6  91194543.779 6      2048.521          40.570    22270641.339 7  91194553.787 7      2048.521          47.387  
G16  20726719.415 7 108919641.821 7     -1531.855          43.889    20726718.264 7  84872444.782 7     -1193.655          43.910                                                                  
G21  21710436.263 7 114089106.413 7     -1930.795          45.773    21710434.871 7  88900600.735 7     -1504.517          44.600                                                                  
> 2020 06 11 13 27 22.0000000  0 11      -0.000000000000
G20  21282787.727 7 111841804.560 7         3.373          44.661    21282787.084 7  87149458.724 7         2.630          43.677                                                                  
G27  20462937.655 8 107533464.857 8      1002.184          48.338    20462938.735 8  83792309.535 8       780.923          48.265    20462939.351 8  83792311.534 8       780.922          50.111  
G10  22078410.366 7 116022832.714 7      2318.001          47.267    22078411.477 7  90407407.415 7      1806.235          47.191    22078411.410 7  90407409.422 7      1806.235          47.556  
G18  22920777.564 7 120449473.394 7     -3105.722          43.559    22920777.162 6  93856745.836 6     -2420.045          41.835    22920777.522 7  93856741.833 7     -2420.045          45.731  
G07  24428702.103 6 128373704.415 6       759.123          40.957    24428702.625 6 100031457.666 6       591.523          40.141    24428703.156 7 100031458.677 7       591.523          44.073  
G11  24636680.234 7 129466642.296 7      3523.717          44.236    24636681.742 5 100883086.536 5      2745.756          35.240                                                                  
G26  22504136.671 6 118260020.372 6     -3273.434          41.763    22504138.322 6  92150676.870 6     -2550.729          41.725    22504138.482 7  92150654.884 7     -2550.728          44.938  
G15  24861789.938 7 130649573.115 7       668.611          43.685    24861789.240 7 101804871.029 7       520.997          43.818    24861789.586 6 101804884.034 6       520.996          37.725  
G08  22270136.494 6 117030365.909 6      2632.053          40.675    22270139.558 6  91192493.751 6      2050.952          40.268    22270140.696 7  91192503.758 7      2050.952          47.292  
G16  20727010.589 7 108921171.992 7     -1529.052          44.004    20727009.437 7  84873637.122 7     -1191.470          43.668                                                                  
G21  21710803.386 7 114091035.630 7     -1928.076          45.641    21710801.990 7  88902104.020 7     -1502.399          44.526                                                                  
> 2020 06 11 13 27 23.0000000  0 11      -0.000000000000
G20  21282786.988 7 111841800.801 7         3.703          45.747    21282786.377 7  87149455.797 7         2.887          42.757                                                                  
G27  20462746.863 8 107532462.268 8      1002.477          49.360    20462747.947 8  83791528.298 8       781.151          49.438    20462748.568 8  83791530.297 8       781.151          50.055  
G10  22077969.182 8 116020514.292 8      2318.467          48.312    22077970.295 8  90405600.855 8      1806.599          48.153    22077970.235 7  90405602.862 7      1806.599          47.539  
G18  22921368.492 7 120452578.757 7     -3105.408          44.827    22921368.084 6  93859165.599 6     -2419.799          40.249    22921368.454 7  93859161.597 7     -2419.800          45.619  
G07  24428557.625 7 128372945.022 7       759.473          42.558    24428558.113 6 100030865.938 6       591.797          39.627    24428558.649 7 100030866.944 7       591.797          43.905  
G11  24636009.615 7 129463118.092 7      3524.454          45.624    24636011.078 5 100880340.414 5      2746.332          35.788                                                                  
G26  22504759.495 7 118263293.331 7     -3272.691          43.229    22504761.148 7  92153227.225 7     -2550.150          42.826    22504761.323 7  92153205.237 7     -2550.150          44.859  
G15  24861662.644 7 130648904.156 7       669.078          44.922    24861661.943 7 101804349.760 7       521.360          44.066    24861662.273 6 101804362.773 6       521.361          37.339  
G08  22269635.536 7 117027733.363 7      2632.599          42.043    22269638.603 7  91190442.415 7      2051.376          42.114    22269639.752 7  91190452.423 7      2051.376          47.398  
G16  20727301.512 7 108922700.854 7     -1528.874          45.215    20727300.363 7  84874828.447 7     -1191.331          44.226                                                                  
G21  21711170.190 7 114092963.195 7     -1927.416          46.821    21711168.800 7  88903606.019 7     -1501.884          44.268                                                                  
> 2020 06 11 13 27 24.0000000  0 11      -0.000000000000
G20  21282786.350 7 111841797.588 7         2.871          45.014    21282785.754 7  87149453.293 7         2.238          44.699                                                                  
G27  20462556.127 8 107531459.940 8      1002.050          48.796    20462557.207 8  83790747.263 8       780.818          48.852    20462557.836 8  83790749.262 8       780.818          50.844  
G10  22077528.074 7 116018196.237 7      2317.833          47.669    22077529.183 7  90403794.578 7      1806.104          47.703    22077529.124 8  90403796.585 8      1806.104          48.459  
G18  22921959.427 7 120455684.167 7     -3105.627          44.055    22921959.026 7  93861585.400 7     -2419.971          42.828    22921959.399 7  93861581.394 7     -2419.971          46.794  
G07  24428413.223 6 128372186.072 6       758.713          41.545    24428413.675 6 100030274.540 6       591.202          40.989    24428414.239 7 100030275.555 7       591.204          45.129  
G11  24635338.972 7 129459593.825 7      3524.177          44.955    24635340.434 5 100877594.235 5      2746.115          35.243                                                                  
G26  22505382.351 7 118266566.467 7     -3273.188          42.686    22505384.009 7  92155777.718 7     -2550.537          42.700    22505384.185 7  92155755.729 7     -2550.537          46.024  
G15  24861535.450 7 130648235.702 7       668.099          43.988    24861534.727 7 101803828.889 7       520.598          44.188    24861535.102 6 101803841.905 6       520.599          38.952  
G08  22269134.601 6 117025100.898 6      2632.424          41.332    22269137.661 6  91188391.143 6      2051.240          41.002    22269138.804 8  91188401.151 8      2051.240          48.322  
G16  20727592.527 7 108924230.195 7     -1529.797          44.542    20727591.369 7  84876020.138 7     -1192.050          44.589                                                                  
G21  21711537.029 7 114094890.891 7     -1927.899          46.221    21711535.638 7  88905108.118 7     -1502.260          45.436                                                                  
> 2020 06 11 13 27 25.0000000  0 11      -0.000000000000
G20  21282785.953 7 111841795.688 7         1.183          46.248    21282785.377 6  87149451.810 6         0.922          41.408                                                                  
G27  20462365.587 8 107530458.677 8      1000.718          49.672    20462366.670 8  83789967.056 8       779.780          49.878    20462367.304 8  83789969.054 8       779.779          49.873  
G10  22077087.185 8 116015879.322 8      2316.317          48.657    22077088.288 8  90401989.186 8      1804.922          48.907    22077088.236 7  90401991.195 7      1804.922          47.647  
G18  22922550.511 7 120458790.402 7     -3106.441          45.125    22922550.147 6  93864005.829 6     -2420.607          38.382    22922550.498 7  93864001.832 7     -2420.606          45.889  
G07  24428269.061 7 128371428.370 7       757.479          43.042    24428269.501 6 100029684.119 6       590.241          38.821    24428270.057 7 100029685.135 7       590.242          43.722  
G11  24634668.477 7 129456070.250 7      3523.323          46.071    24634669.919 5 100874848.588 5      2745.448          33.666                                                                  
G26  22506005.384 7 118269840.561 7     -3274.612          43.736    22506007.056 7  92158328.955 7     -2551.648          44.034    22506007.235 7  92158306.964 7     -2551.648          45.082  
G15  24861408.481 7 130647568.475 7       666.765          45.269    24861407.751 7 101803308.974 7       519.558          42.846    24861408.143 6 101803321.989 6       519.559          36.912  
G08  22268633.814 7 117022469.298 7      2631.043          42.885    22268636.885 7  91186340.543 7      2050.163          42.807    22268638.024 7  91186350.550 7      2050.163          47.421  
G16  20727883.784 7 108925760.761 7     -1531.198          45.685    20727882.613 7  84877212.783 7     -1193.143          43.124                                                                  
G21  21711904.033 7 114096819.485 7     -1929.018          47.243    21711902.637 7  88906610.914 7     -1503.133          42.732                                                                  
> 2020 06 11 13 27 26.0000000  0 11      -0.000000000000
G20  21282785.878 7 111841795.483 7        -0.949          44.519    21282785.337 7  87149451.647 7        -0.740          44.016                                                                  
G27  20462175.335 8 107529458.907 8       998.591          48.220    20462176.420 8  83789188.013 8       778.123          48.447    20462177.058 8  83789190.012 8       778.123          50.342  
G10  22076646.584 7 116013563.959 7      2314.142          47.054    22076647.689 7  90400185.005 7      1803.228          47.056    22076647.634 7  90400187.014 7      1803.228          47.804  
G18  22923141.839 7 120461897.906 7     -3108.452          43.201    22923141.483 7  93866427.257 7     -2422.173          42.054    22923141.828 7  93866423.263 7     -2422.171          46.182  
G07  24428125.238 6 128370672.385 6       754.746          40.874    24428125.597 6 100029095.036 6       588.110          39.992    24428126.203 7 100029096.055 7       588.113          44.129  
G11  24633998.198 7 129452547.815 7      3521.554          44.378    24633999.609 6 100872103.835 6      2744.069          37.010                                                                  
G26  22506628.669 6 118273116.015 6     -3276.490          41.820    22506630.356 6  92160881.253 6     -2553.112          41.655    22506630.528 7  92160859.262 7     -2553.112          45.640  
G15  24861281.842 7 130646902.925 7       664.261          43.403    24861281.102 7 101802790.361 7       517.606          43.450    24861281.543 6 101802803.378 6       517.607          37.648  
G08  22268133.280 6 117019838.969 6      2629.356          40.671    22268136.347 6  91184290.935 6      2048.848          40.620    22268137.487 7  91184300.942 7      2048.848          47.734  
G16  20728175.351 7 108927293.002 7     -1533.617          43.973    20728174.197 7  84878406.736 7     -1195.028          43.208                                                                  
G21  21712271.291 7 114098749.407 7     -1931.064          45.628    21712269.887 7  88908114.752 7     -1504.726          44.692                                                                  
> 2020 06 11 13 27 27.0000000  0 11      -0.000000000000
G20  21282786.350 7 111841798.076 7        -4.006          45.280    21282785.832 7  87149453.671 7        -3.121          43.294                                                                  
G27  20461985.565 8 107528461.631 8       995.836          48.998    20461986.645 8  83788410.916 8       775.976          49.186    20461987.279 8  83788412.915 8       775.976          50.219  
G10  22076206.472 7 116011251.179 7      2311.437          47.721    22076207.583 7  90398382.841 7      1801.120          47.995    22076207.525 7  90398384.849 7      1801.120          47.850  
G18  22923733.612 7 120465007.698 7     -3111.244          44.027    22923733.246 6  93868850.474 6     -2424.348          41.086    22923733.609 7  93868846.481 7     -2424.346          45.883  
G07  24427981.908 7 128369919.041 7       751.753          42.219    24427982.234 6 100028508.005 6       585.777          39.746    24427982.854 7 100028509.025 7       585.778          44.128  
G11  24633328.330 7 129449027.544 7      3519.260          45.235    24633329.722 5 100869360.763 5      2742.282          34.846                                                                  
G26  22507252.441 7 118276393.881 7     -3279.281          42.752    22507254.116 7  92163435.435 7     -2555.285          43.211    22507254.283 7  92163413.444 7     -2555.285          45.452  
G15  24861155.711 7 130646240.066 7       661.468          44.364    24861154.945 7 101802273.847 7       515.430          44.200    24861155.446 6 101802286.866 6       515.431          36.709  
G08  22267633.185 6 117017210.972 6      2626.715          41.702    22267636.256 6  91182243.146 6      2046.791          41.419    22267637.401 7  91182253.153 7      2046.791          47.697  
G16  20728467.428 7 108928827.946 7     -1536.441          44.689    20728466.288 7  84879602.795 7     -1197.228          43.859                                                                  
G21  21712638.996 7 114100681.687 7     -1933.539          46.558    21712637.594 7  88909620.427 7     -1506.654          44.360                                                                  
> 2020 06 11 13 27 28.0000000  0 11      -0.000000000000
G20  21282787.419 7 111841803.860 7        -7.771          45.117    21282786.929 7  87149458.180 7        -6.055          43.581                                                                  
G27  20461796.338 8 107527467.281 8       992.639          49.110    20461797.423 8  83787636.098 8       773.485          49.445    20461798.055 8  83787638.097 8       773.485          50.260  
G10  22075766.935 7 116008941.412 7      2308.043          47.781    22075768.045 7  90396583.025 7      1798.475          47.885    22075767.989 7  90396585.031 7      1798.475          47.696  
G18  22924325.910 7 120468120.199 7     -3114.382          44.216    22924325.550 6  93871275.797 6     -2426.792          39.720    22924325.900 7  93871271.806 7     -2426.792          46.047  
G07  24427839.165 7 128369168.821 7       748.446          42.047    24427839.464 6 100027923.413 6       583.200          39.648    24427840.095 7 100027924.427 7       583.200          44.133  
G11  24632658.956 7 129445509.871 7      3516.083          45.405    24632660.331 5 100866619.723 5      2739.807          33.620                                                                  
G26  22507876.735 7 118279674.544 7     -3282.503          42.880    22507878.407 7  92165991.794 7     -2557.797          43.094    22507878.570 7  92165969.800 7     -2557.798          45.332  
G15  24861030.176 7 130645580.337 7       657.685          44.311    24861029.392 7 101801759.767 7       512.480          44.390    24861029.868 6 101801772.785 6       512.481          37.271  
G08  22267133.613 6 117014585.696 6      2623.551          41.768    22267136.684 7  91180197.479 7      2044.326          42.118    22267137.822 7  91180207.486 7      2044.326          47.856  
G16  20728760.097 7 108930365.991 7     -1540.020          45.097    20728758.962 7  84880801.270 7     -1200.016          44.504                                                                  
G21  21713007.233 7 114102616.736 7     -1936.788          46.805    21713005.827 7  88911128.256 7     -1509.186          43.381                                                                  
> 2020 06 11 13 27 29.0000000  0 11      -0.000000000000
G20  21282789.186 7 111841813.259 7       -11.257          44.979    21282788.722 7  87149465.503 7        -8.771          44.049                                                                  
G27  20461607.778 8 107526476.335 8       989.192          48.644    20461608.852 8  83786863.934 8       770.799          48.691    20461609.491 8  83786865.934 8       770.799          50.306  
G10  22075328.051 7 116006635.131 7      2304.593          47.353    22075329.174 7  90394785.924 7      1795.787          47.398    22075329.111 7  90394787.930 7      1795.787          47.951  
G18  22924918.783 7 120471235.852 7     -3117.160          44.022    22924918.456 6  93873703.582 6     -2428.957          40.228    22924918.792 7  93873699.585 7     -2428.957          46.329  
G07  24427697.094 6 128368422.159 6       744.883          41.902    24427697.413 6 100027341.603 6       580.426          40.978    24427698.004 7 100027342.610 7       580.424          44.145  
G11  24631990.166 7 129441995.219 7      3513.268          44.718    24631991.509 5 100863881.034 5      2737.613          34.861                                                                  
G26  22508501.636 7 118282958.478 7     -3285.489          42.412    22508503.322 7  92168550.703 7     -2560.122          42.045    22508503.488 7  92168528.707 7     -2560.124          45.610  
G15  24860905.328 7 130644924.202 7       654.177          43.870    24860904.510 7 101801248.496 7       509.749          43.696    24860904.991 6 101801261.510 6       509.748          37.381  
G08  22266634.647 6 117011963.616 6      2620.409          40.967    22266637.717 6  91178154.303 6      2041.878          40.500    22266638.843 7  91178164.311 7      2041.878          47.917  
G16  20729053.459 7 108931907.620 7     -1543.431          44.443    20729052.336 7  84882002.544 7     -1202.673          43.942                                                                  
G21  21713376.097 7 114104555.036 7     -1939.930          46.247    21713374.682 7  88912638.619 7     -1511.634          44.349                                                                  
> 2020 06 11 13 27 30.0000000  0 11      -0.000000000000
G20  21282791.667 7 111841826.381 7       -15.026          46.458    21282791.212 7  87149475.731 7       -11.708          42.083                                                                  
G27  20461419.871 8 107525488.848 8       985.554          50.007    20461420.939 8  83786094.466 8       767.965          50.187    20461421.585 8  83786096.467 8       767.965          50.421  
G10  22074889.850 8 116004332.378 8      2300.874          49.096    22074890.976 8  90392991.573 8      1792.890          49.257    22074890.903 8  90392993.579 8      1792.889          48.078  
G18  22925512.279 7 120474354.756 7     -3120.691          45.827    22925511.990 6  93876133.899 6     -2431.707          39.574    22925512.311 7  93876129.901 7     -2431.708          46.584  
G07  24427555.735 7 128367679.168 7       740.841          43.818    24427555.996 6 100026762.646 6       577.276          39.224    24427556.619 7 100026763.657 7       577.276          44.436  
G11  24631321.952 7 129438483.703 7      3509.849          46.678    24631323.276 5 100861144.796 5      2734.951          33.519                                                                  
G26  22509127.186 7 118286245.780 7     -3288.919          44.598    22509128.886 7  92171112.237 7     -2562.795          45.012    22509129.053 7  92171090.238 7     -2562.797          45.832  
G15  24860781.157 7 130644271.681 7       650.597          45.801    24860780.334 7 101800740.041 7       506.959          43.566    24860780.832 6 101800753.055 6       506.960          37.596  
G08  22266136.314 7 117009344.793 7      2617.060          43.400    22266139.371 7  91176113.663 7      2039.268          44.060    22266140.502 8  91176123.671 8      2039.269          48.045  
G16  20729347.517 7 108933452.913 7     -1547.318          46.351    20729346.385 7  84883206.671 7     -1205.701          43.794                                                                  
G21  21713745.590 8 114106496.638 8     -1943.382          48.011    21713744.157 7  88914151.556 7     -1514.324          42.779                                                                  
> 2020 06 11 13 27 31.0000000  0 11      -0.000000000000
G20  21282794.736 7 111841842.633 7       -17.612          44.381    21282794.288 7  87149488.393 7       -13.723          43.094                                                                  
G27  20461232.507 8 107524504.252 8       983.311          48.259    20461233.574 7  83785327.250 7       766.217          47.906    20461234.224 8  83785329.251 8       766.218          48.864  
G10  22074452.217 7 116002032.587 7      2298.493          47.095    22074453.339 7  90391199.529 7      1791.034          46.928    22074453.263 7  90391201.535 7      1791.034          46.126  
G18  22926106.281 7 120477476.319 7     -3122.600          43.325    22926105.987 6  93878566.287 6     -2433.195          39.982    22926106.332 7  93878562.282 7     -2433.196          44.524  
G07  24427414.956 6 128366939.222 6       738.588          41.300    24427415.201 6 100026186.061 6       575.520          39.278    24427415.813 7 100026187.076 7       575.521          42.344  
G11  24630654.222 7 129434974.716 7      3508.089          44.368    24630655.529 6 100858410.520 6      2733.579          36.210                                                                  
G26  22509753.257 6 118289535.844 6     -3291.220          41.689    22509754.967 6  92173675.922 6     -2564.588          41.087    22509755.132 7  92173653.920 7     -2564.590          43.549  
G15  24860657.569 7 130643622.257 7       648.165          43.135    24860656.758 7 101800233.996 7       505.064          42.638    24860657.220 5 101800247.015 5       505.065          34.857  
G08  22265638.484 6 117006728.617 6      2615.308          41.017    22265641.533 6  91174075.085 6      2037.903          41.353    22265642.658 7  91174085.094 7      2037.903          46.094  
G16  20729642.162 7 108935001.268 7     -1549.645          43.881    20729641.028 7  84884413.182 7     -1207.516          43.389                                                                  
G21  21714115.596 7 114108440.969 7     -1945.470          45.805    21714114.152 7  88915666.621 7     -1515.950          43.336                                                                  
> 2020 06 11 13 27 32.0000000  0 11      -0.000000000000
G20  21282798.362 7 111841861.728 7       -20.340          45.615    21282797.917 7  87149503.270 7       -15.850          44.838                                                                  
G27  20461045.635 8 107523522.223 8       981.144          49.082    20461046.699 8  83784562.033 8       764.528          49.054    20461047.349 8  83784564.033 8       764.528          50.806  
G10  22074015.086 7 115999735.463 7      2296.049          47.897    22074016.212 8  90389409.564 8      1789.130          48.068    22074016.134 8  90389411.570 8      1789.130          48.368  
G18  22926700.733 7 120480600.236 7     -3124.967          44.161    22926700.445 6  93881000.506 6     -2435.040          40.610    22926700.793 7  93880996.502 7     -2435.041          46.682  
G07  24427274.701 7 128366202.060 7       735.745          42.433    24427274.920 6 100025611.650 6       573.307          41.645    24427275.518 7 100025612.664 7       573.306          45.092  
G11  24629986.913 7 129431467.950 7      3506.015          45.250    24629988.194 5 100855677.978 5      2731.962          34.833                                                                  
G26  22510379.793 7 118292828.392 7     -3293.625          42.795    22510381.524 7  92176241.543 7     -2566.462          43.008    22510381.695 7  92176219.540 7     -2566.463          45.728  
G15  24860534.511 7 130642975.586 7       645.544          44.241    24860533.689 7 101799730.096 7       503.021          44.242    24860534.120 6 101799743.119 6       503.023          37.987  
G08  22265141.107 7 117004114.861 7      2612.743          42.092    22265144.146 7  91172038.392 7      2035.905          42.793    22265145.272 8  91172048.401 8      2035.905          48.247  
G16  20729937.305 7 108936552.364 7     -1552.163          44.844    20729936.185 7  84885621.823 7     -1209.478          44.396                                                                  
G21  21714486.057 7 114110387.715 7     -1947.712          46.827    21714484.602 7  88917183.563 7     -1517.699          44.877                                                                  
> 2020 06 11 13 27 33.0000000  0 11      -0.000000000000
G20  21282802.327 7 111841882.650 7       -21.835          47.261    21282801.897 7  87149519.571 7       -17.015          42.380                                                                  
G27  20460859.063 8 107522541.781 8       979.608          50.207    20460860.124 8  83783798.052 8       763.332          50.027    20460860.776 8  83783800.053 8       763.332          50.707  
G10  22073578.269 8 115997439.984 8      2294.590          49.193    22073579.396 8  90387620.879 8      1787.994          48.974    22073579.321 8  90387622.885 8      1787.994          48.568  
G18  22927295.433 7 120483725.497 7     -3125.874          46.152    22927295.159 6  93883435.771 6     -2435.747          40.040    22927295.517 7  93883431.768 7     -2435.747          46.863  
G07  24427134.773 7 128365466.626 7       734.540          44.317    24427134.983 6 100025038.588 6       572.369          41.074    24427135.578 7 100025039.598 7       572.368          44.951  
G11  24629319.854 7 129427962.439 7      3504.901          46.874    24629321.137 5 100852946.414 5      2731.094          35.063                                                                  
G26  22511006.595 7 118296122.387 7     -3294.714          44.704    22511008.352 7  92178808.291 7     -2567.311          44.831    22511008.521 7  92178786.290 7     -2567.312          45.861  
G15  24860411.798 7 130642330.694 7       643.877          46.025    24860410.950 7 101799227.578 7       501.722          43.443    24860411.424 6 101799240.599 6       501.722          36.619  
G08  22264643.991 7 117001502.477 7      2611.547          43.949    22264647.026 7  91170002.769 7      2034.973          43.743    22264648.141 8  91170012.777 8      2034.973          48.391  
G16  20730232.810 7 108938105.244 7     -1553.714          46.414    20730231.687 7  84886831.859 7     -1210.687          43.980                                                                  
G21  21714856.793 8 114112335.893 8     -1948.862          48.264    21714855.329 7  88918701.620 7     -1518.595          43.754                                                                  
> 2020 06 11 13 27 34.0000000  0 11      -0.000000000000
G20  21282806.544 7 111841904.850 7       -22.567          44.815    21282806.116 7  87149536.872 7       -17.585          43.363                                                                  
G27  20460672.682 8 107521562.368 8       979.260          48.598    20460673.745 8  83783034.873 8       763.060          48.576    20460674.396 8  83783036.875 8       763.060          49.204  
G10  22073141.661 7 115995145.617 7      2294.238          47.129    22073142.796 7  90385833.063 7      1787.719          47.235    22073142.709 7  90385835.070 7      1787.720          47.119  
G18  22927890.295 7 120486851.579 7     -3126.055          43.551    22927890.048 6  93885871.682 6     -2435.887          40.663    22927890.398 7  93885867.676 7     -2435.889          45.329  
G07  24426995.065 6 128364732.430 6       734.214          41.631    24426995.288 6 100024466.494 6       572.117          38.981    24426995.875 7 100024467.500 7       572.115          42.835  
G11  24628652.915 7 129424457.607 7      3504.783          44.543    24628654.174 5 100850215.372 5      2731.000          33.000                                                                  
G26  22511633.585 7 118299417.320 7     -3295.087          42.139    22511635.358 7  92181375.774 7     -2567.600          42.554    22511635.514 7  92181353.772 7     -2567.601          44.532  
G15  24860289.310 7 130641687.032 7       643.399          43.751    24860288.446 7 101798726.032 7       501.351          43.341    24860288.968 5 101798739.051 5       501.352          34.482  
G08  22264147.041 6 116998890.949 6      2611.058          41.334    22264150.072 6  91167967.815 6      2034.592          41.539    22264151.177 7  91167977.823 7      2034.592          46.596  
G16  20730528.544 7 108939659.356 7     -1554.477          43.779    20730527.420 7  84888042.854 7     -1211.282          43.582                                                                  
G21  21715227.691 7 114114284.959 7     -1949.224          46.176    21715226.230 7  88920220.368 7     -1518.878          43.328                                                                  
> 2020 06 11 13 27 35.0000000  0 11      -0.000000000000
G20  21282810.892 7 111841927.830 7       -23.299          44.770    21282810.489 7  87149554.776 7       -18.156          43.584                                                                  
G27  20460486.409 8 107520583.509 8       978.593          48.480    20460487.471 8  83782272.125 8       762.540          48.599    20460488.127 8  83782274.127 8       762.540          50.017  
G10  22072705.173 7 115992851.865 7      2293.385          46.583    22072706.304 7  90384045.717 7      1787.052          46.464    22072706.229 7  90384047.726 7      1787.053          46.740  
G18  22928485.206 7 120489977.974 7     -3126.634          43.423    22928484.992 6  93888307.826 6     -2436.341          41.827    22928485.336 7  93888303.821 7     -2436.341          46.334  
G07  24426855.496 6 128363998.957 6       732.851          41.851    24426855.728 6 100023894.956 6       571.052          40.108    24426856.310 7 100023895.962 7       571.052          44.048  
G11  24627986.011 7 129420952.956 7      3504.563          44.434    24627987.263 6 100847484.469 6      2730.826          37.217                                                                  
G26  22512260.646 7 118302712.635 7     -3295.443          42.086    22512262.427 7  92183943.547 7     -2567.878          42.052    22512262.598 7  92183921.548 7     -2567.878          45.931  
G15  24860166.961 7 130641044.081 7       642.544          43.537    24860166.072 7 101798225.028 7       500.683          43.155    24860166.608 6 101798238.045 6       500.683          36.397  
G08  22263650.179 6 116996279.706 6      2611.111          41.187    22263653.169 6  91165933.080 6      2034.633          41.004    22263654.267 7  91165943.088 7      2034.633          47.603  
G16  20730824.396 7 108941214.176 7     -1555.278          43.947    20730823.289 7  84889254.401 7     -1211.906          43.727                                                                  
G21  21715598.668 7 114116234.405 7     -1949.764          46.112    21715597.216 7  88921739.415 7     -1519.298          44.869                                                                  
> 2020 06 11 13 27 36.0000000  0 11      -0.000000000000
G20  21282815.382 7 111841951.501 7       -24.278          44.030    21282814.985 7  87149573.218 7       -18.919          43.762                                                                  
G27  20460300.213 7 107519605.056 7       977.588          47.842    20460301.273 7  83781509.692 7       761.757          47.510    20460301.935 8  83781511.694 8       761.757          49.250  
G10  22072268.788 7 115990558.643 7      2292.606          46.881    22072269.918 7  90382258.787 7      1786.445          46.885    22072269.833 7  90382260.795 7      1786.445          45.849  
G18  22929080.153 7 120493104.556 7     -3127.158          42.806    22929079.953 6  93890744.120 6     -2436.748          41.375    22929080.319 7  93890740.121 7     -2436.748          43.700  
G07  24426716.037 6 128363266.061 6       732.416          40.353    24426716.270 6 100023323.870 6       570.715          38.930    24426716.827 7 100023324.875 7       570.714          42.685  
G11  24627319.124 7 129417448.375 7      3504.084          43.721    24627320.371 5 100844753.621 5      2730.453          35.767                                                                  
G26  22512887.769 6 118306008.351 6     -3295.275          37.714    22512889.573 6  92186511.627 6     -2567.749          38.096    22512889.759 6  92186489.632 6     -2567.748          39.976  
G15  24860044.732 7 130640401.745 7       641.868          42.937    24860043.813 7 101797724.502 7       500.156          42.201    24860044.368 5 101797737.520 5       500.156          35.183  
G08  22263153.324 6 116993668.731 6      2610.259          40.621    22263156.323 6  91163898.554 6      2033.969          40.603    22263157.412 7  91163908.561 7      2033.969          45.328  
G16  20731120.382 7 108942769.609 7     -1556.044          42.898    20731119.276 7  84890466.426 7     -1212.503          42.624                                                                  
G21  21715969.699 7 114118184.104 7     -1950.447          45.231    21715968.231 7  88923258.665 7     -1519.829          44.055                                                                  
> 2020 06 11 13 27 37.0000000  0 11      -0.000000000000
G20  21282820.125 7 111841976.515 7       -25.448          45.307    21282819.731 7  87149592.710 7       -19.830          43.742                                                                  
G27  20460114.217 8 107518627.698 8       977.032          48.861    20460115.286 8  83780748.114 8       761.324          49.054    20460115.948 8  83780750.117 8       761.324          50.111  
G10  22071832.612 7 115988266.540 7      2291.899          47.422    22071833.742 7  90380472.735 7      1785.896          47.346    22071833.667 7  90380474.746 7      1785.896          46.337  
G18  22929675.264 7 120496231.990 7     -3127.720          43.933    22929675.077 6  93893181.082 6     -2437.186          40.669    22929675.444 7  93893177.080 7     -2437.187          44.593  
G07  24426576.848 6 128362534.475 6       731.238          41.932    24426577.062 6 100022753.805 6       569.797          40.837    24426577.599 7 100022754.810 7       569.796          44.140  
G11  24626652.377 7 129413944.527 7      3503.942          45.063    24626653.602 5 100842023.361 5      2730.345          33.528                                                                  
G26  22513515.086 7 118309304.948 7     -3296.786          42.540    22513516.897 7  92189080.409 7     -2568.926          42.565    22513517.091 7  92189058.418 7     -2568.925          44.056  
G15  24859922.754 7 130639760.710 7       640.616          43.845    24859921.802 6 101797224.996 6       499.181          41.918    24859922.419 6 101797238.014 6       499.181          37.082  
G08  22262656.620 7 116991058.623 7      2609.843          42.215    22262659.638 7  91161864.701 7      2033.643          42.619    22262660.719 7  91161874.707 7      2033.643          46.606  
G16  20731416.592 7 108944326.313 7     -1557.231          44.108    20731415.505 7  84891679.442 7     -1213.427          43.668                                                                  
G21  21716340.906 7 114120134.759 7     -1950.900          46.347    21716339.431 7  88924778.659 7     -1520.181          44.425                                                                  
> 2020 06 11 13 27 38.0000000  0 11      -0.000000000000
G20  21282825.124 7 111842002.835 7       -26.848          46.345    21282824.730 7  87149613.226 7       -20.919          44.162                                                                  
G27  20459928.426 8 107517651.382 8       976.094          49.671    20459929.496 8  83779987.349 8       760.593          49.914    20459930.162 8  83779989.351 8       760.593          50.637  
G10  22071396.657 8 115985975.609 8      2290.966          48.149    22071397.793 8  90378687.604 8      1785.171          48.246    22071397.715 7  90378689.614 7      1785.171          47.898  
G18  22930270.535 7 120499360.269 7     -3128.202          44.794    22930270.374 6  93895618.708 6     -2437.560          41.213    22930270.735 7  93895614.702 7     -2437.561          46.186  
G07  24426437.900 7 128361804.133 7       730.008          43.747    24426438.101 6 100022184.714 6       568.839          40.448    24426438.625 7 100022185.720 7       568.839          45.263  
G11  24625985.768 7 129410441.415 7      3503.050          45.081    24625986.997 5 100839293.662 5      2729.649          35.931                                                                  
G26  22514142.582 7 118312602.520 7     -3297.258          43.003    22514144.400 7  92191649.945 7     -2569.293          43.193    22514144.614 7  92191627.953 7     -2569.292          45.381  
G15  24859801.003 7 130639120.895 7       639.694          44.605    24859800.028 7 101796726.437 7       498.462          44.234    24859800.673 6 101796739.450 6       498.461          37.238  
G08  22262160.121 7 116988449.357 7      2609.140          43.779    22262163.112 7  91159831.509 7      2033.097          43.934    22262164.199 8  91159841.515 8      2033.097          48.083  
G16  20731713.048 7 108945884.263 7     -1558.288          45.658    20731711.961 7  84892893.427 7     -1214.252          44.703                                                                  
G21  21716712.269 7 114122086.306 7     -1951.492          47.167    21716710.806 7  88926299.347 7     -1520.642          44.619                                                                  
> 2020 06 11 13 27 39.0000000  0 11      -0.000000000000
G20  21282830.349 7 111842030.400 7       -28.159          45.849    21282829.957 7  87149634.714 7       -21.939          43.285                                                                  
G27  20459742.828 8 107516676.094 8       974.763          49.628    20459743.902 8  83779227.384 8       759.555          49.682    20459744.568 8  83779229.386 8       759.555          50.039  
G10  22070960.908 8 115983685.768 8      2289.256          48.388    22070962.055 8  90376903.318 8      1783.838          48.112    22070961.973 8  90376905.327 8      1783.839          48.112  
G18  22930865.962 7 120502489.323 7     -3128.987          45.113    22930865.825 6  93898056.935 6     -2438.170          41.708    22930866.167 7  93898052.929 7     -2438.170          46.601  
G07  24426299.161 7 128361074.960 7       728.426          43.149    24426299.348 6 100021616.520 6       567.604          39.700    24426299.868 7 100021617.531 7       567.606          43.956  
G11  24625319.284 7 129406938.995 7      3501.949          45.582    24625320.509 6 100836564.511 6      2728.795          36.874                                                                  
G26  22514770.235 7 118315901.004 7     -3299.075          44.008    22514772.083 7  92194220.190 7     -2570.710          43.811    22514772.314 7  92194198.200 7     -2570.709          46.099  
G15  24859679.492 7 130638482.291 7       638.095          44.850    24859678.467 7 101796228.813 7       497.214          43.029    24859679.141 5 101796241.826 5       497.213          35.578  
G08  22261663.745 7 116985840.893 7      2608.081          43.293    22261666.742 7  91157798.944 7      2032.273          43.077    22261667.835 8  91157808.949 8      2032.272          48.492  
G16  20732009.735 7 108947443.409 7     -1559.413          45.486    20732008.661 7  84894108.343 7     -1215.128          43.449                                                                  
G21  21717083.807 7 114124038.723 7     -1952.769          47.646    21717082.342 7  88927820.709 7     -1521.638          44.579                                                                  
> 2020 06 11 13 27 40.0000000  0 11      -0.000000000000
G20  21282835.718 7 111842058.699 7       -28.434          45.774    21282835.351 7  87149656.768 7       -22.153          42.333                                                                  
G27  20459557.326 8 107515701.278 8       974.799          49.286    20459558.401 8  83778467.789 8       759.585          49.050    20459559.067 8  83778469.791 8       759.585          49.569  
G10  22070525.271 8 115981396.494 8      2289.282          48.110    22070526.423 8  90375119.470 8      1783.859          48.374    22070526.337 7  90375121.479 7      1783.859          46.783  
G18  22931461.437 7 120505618.679 7     -3129.208          45.250    22931461.339 6  93900495.394 6     -2438.343          39.235    22931461.676 7  93900491.394 7     -2438.343          45.272  
G07  24426160.558 7 128360346.478 7       728.486          43.177    24426160.737 6 100021048.867 6       567.651          38.081    24426161.243 7 100021049.888 7       567.654          43.364  
G11  24624652.813 7 129403436.658 7      3502.512          46.404    24624654.050 5 100833835.431 5      2729.236          34.803                                                                  
G26  22515397.978 7 118319199.866 7     -3298.973          44.172    22515399.837 7  92196790.729 7     -2570.629          44.286    22515400.075 7  92196768.739 7     -2570.628          44.345  
G15  24859558.098 7 130637844.372 7       637.936          44.867    24859557.039 7 101795731.735 7       497.092          42.608    24859557.731 5 101795744.750 5       497.092          35.478  
G08  22261167.445 7 116983232.727 7      2608.007          43.061    22261170.429 7  91155766.608 7      2032.215          43.625    22261171.529 7  91155776.614 7      2032.214          46.704  
G16  20732306.560 7 108949003.240 7     -1559.986          45.614    20732305.482 7  84895323.798 7     -1215.574          43.357                                                                  
G21  21717455.418 7 114125991.463 7     -1952.596          47.642    21717453.938 7  88929342.323 7     -1521.504          42.862                                                                  
> 2020 06 11 13 27 41.0000000  0 11      -0.000000000000
G20  21282840.977 7 111842086.437 7       -27.170          46.715    21282840.622 6  87149678.384 6       -21.169          41.165                                                                  
G27  20459371.659 8 107514725.660 8       975.938          50.059    20459372.747 8  83777707.570 8       760.472          50.231    20459373.420 8  83777709.571 8       760.472          49.876  
G10  22070089.490 8 115979106.464 8      2290.446          49.120    22070090.640 8  90373335.033 8      1784.765          49.340    22070090.552 7  90373337.041 7      1784.765          47.206  
G18  22932056.719 7 120508746.932 7     -3127.757          45.258    22932056.640 6  93902932.989 6     -2437.214          38.194    22932056.964 7  93902928.991 7     -2437.212          45.812  
G07  24426021.851 7 128359617.387 7       729.152          44.640    24426022.009 6 100020480.745 6       568.171          37.695    24426022.487 7 100020481.767 7       568.173          44.034  
G11  24623986.132 7 129399933.202 7      3503.934          47.068    24623987.356 5 100831105.473 5      2730.345          33.294                                                                  
G26  22516025.565 7 118322497.759 7     -3297.282          44.073    22516027.408 7  92199360.519 7     -2569.312          44.384    22516027.648 7  92199338.527 7     -2569.312          44.816  
G15  24859436.590 7 130637205.818 7       638.808          46.177    24859435.496 6 101795234.169 6       497.773          40.927    24859436.251 6 101795247.185 6       497.773          36.381  
G08  22260670.936 7 116980623.523 7      2609.639          43.381    22260673.914 7  91153733.464 7      2033.486          43.442    22260675.003 7  91153743.469 7      2033.486          47.171  
G16  20732603.267 7 108950562.415 7     -1558.805          46.662    20732602.190 7  84896538.740 7     -1214.653          42.273                                                                  
G21  21717826.848 8 114127943.234 8     -1951.412          48.309    21717825.350 6  88930863.178 6     -1520.582          41.226                                                                  
> 2020 06 11 13 27 42.0000000  0 11      -0.000000000000
G20  21282846.156 7 111842113.789 7       -27.502          44.307    21282845.820 6  87149699.698 6       -21.428          41.902                                                                  
G27  20459185.873 8 107513749.369 8       976.294          48.226    20459186.961 8  83776946.826 8       760.749          48.023    20459187.642 8  83776948.827 8       760.749          48.756  
G10  22069653.600 7 115976815.862 7      2290.622          46.885    22069654.753 7  90371550.150 7      1784.902          46.339    22069654.666 7  90371552.156 7      1784.902          45.906  
G18  22932651.825 7 120511874.339 7     -3127.368          43.162    22932651.755 6  93905369.933 6     -2436.910          38.584    22932652.093 7  93905365.938 7     -2436.908          44.339  
G07  24425883.029 6 128358887.765 6       729.638          41.793    24425883.153 6 100019912.208 6       568.548          39.912    24425883.630 7 100019913.226 7       568.549          42.470  
G11  24623319.246 7 129396428.699 7      3504.770          45.252    24623320.450 5 100828374.700 5      2730.993          34.984                                                                  
G26  22516652.983 7 118325794.912 7     -3297.114          42.304    22516654.831 6  92201929.723 6     -2569.182          41.992    22516655.099 7  92201907.733 7     -2569.181          44.017  
G15  24859314.981 7 130636566.793 7       638.900          43.580    24859313.875 7 101794736.230 7       497.846          42.201    24859314.651 5 101794749.247 5       497.845          34.348  
G08  22260174.272 6 116978013.474 6      2610.042          41.296    22260177.238 6  91151699.660 6      2033.801          41.337    22260178.332 7  91151709.667 7      2033.801          45.822  
G16  20732899.877 7 108952121.122 7     -1558.788          43.974    20732898.794 7  84897753.319 7     -1214.640          42.782                                                                  
G21  21718198.121 7 114129894.178 7     -1950.699          45.970    21718196.598 7  88932383.394 7     -1520.026          43.425                                                                  
> 2020 06 11 13 27 43.0000000  0 11      -0.000000000000
G20  21282851.295 7 111842140.828 7       -26.889          44.689    21282850.964 7  87149720.761 7       -20.952          43.220                                                                  
G27  20458999.978 8 107512772.538 8       977.140          48.328    20459001.072 8  83776185.656 8       761.408          48.365    20459001.757 8  83776187.658 8       761.408          50.236  
G10  22069217.623 7 115974524.794 7      2291.335          47.074    22069218.773 7  90369764.900 7      1785.457          46.984    22069218.690 8  90369766.905 8      1785.456          48.128  
G18  22933246.794 7 120515000.973 7     -3126.079          43.746    22933246.739 6  93907806.264 6     -2435.908          41.071    22933247.083 7  93907802.278 7     -2435.905          46.742  
G07  24425744.159 6 128358157.809 6       730.273          41.578    24425744.266 6 100019343.416 6       569.044          40.329    24425744.712 7 100019344.425 7       569.043          44.575  
G11  24622652.194 7 129392923.328 7      3505.751          45.112    24622653.429 6 100825643.229 6      2731.756          37.816                                                                  
G26  22517280.279 7 118329091.403 7     -3296.209          42.218    22517282.141 6  92204498.413 6     -2568.477          41.921    22517282.402 7  92204476.422 7     -2568.477          46.324  
G15  24859193.313 7 130635927.421 7       639.588          43.628    24859192.192 7 101794238.022 7       498.381          42.474    24859192.961 6 101794251.034 6       498.380          36.891  
G08  22259677.472 7 116975402.682 7      2611.440          42.222    22259680.425 6  91149665.276 6      2034.889          41.700    22259681.503 8  91149675.284 8      2034.889          48.416  
G16  20733196.412 7 108953679.486 7     -1558.172          44.043    20733195.355 7  84898967.622 7     -1214.161          43.136                                                                  
G21  21718569.249 7 114131844.428 7     -1949.786          46.163    21718567.705 7  88933903.071 7     -1519.314          44.660                                                                  
> 2020 06 11 13 27 44.0000000  0 11      -0.000000000000
G20  21282856.493 7 111842168.183 7       -27.624          45.321    21282856.170 7  87149742.074 7       -21.526          43.635                                                                  
G27  20458814.099 8 107511795.768 8       976.658          48.836    20458815.192 8  83775424.536 8       761.032          48.766    20458815.880 8  83775426.536 8       761.032          49.750  
G10  22068781.680 7 115972233.862 7      2290.819          47.738    22068782.823 7  90367979.756 7      1785.054          47.744    22068782.731 7  90367981.761 7      1785.054          47.524  
G18  22933841.735 7 120518127.428 7     -3126.339          44.352    22933841.693 6  93910242.457 6     -2436.110          41.274    22933842.018 7  93910238.471 7     -2436.108          45.904  
G07  24425605.313 6 128357428.081 6       729.691          41.879    24425605.437 6 100018774.800 6       568.592          41.173    24425605.846 7 100018775.804 7       568.590          43.899  
G11  24621985.089 7 129389417.654 7      3505.744          45.799    24621986.364 6 100822911.539 6      2731.751          37.026                                                                  
G26  22517907.559 7 118332387.810 7     -3296.418          42.782    22517909.443 7  92207067.040 7     -2568.640          42.901    22517909.692 7  92207045.045 7     -2568.641          45.628  
G15  24859071.681 7 130635288.283 7       639.159          43.751    24859070.524 7 101793739.990 7       498.046          43.378    24859071.321 5 101793752.999 5       498.045          35.597  
G08  22259180.640 7 116972791.755 7      2611.165          42.803    22259183.586 7  91147630.783 7      2034.674          42.851    22259184.660 7  91147640.792 7      2034.674          47.657  
G16  20733492.997 7 108955238.064 7     -1558.742          44.637    20733491.954 7  84900182.095 7     -1214.606          43.978                                                                  
G21  21718940.371 7 114133794.588 7     -1950.211          46.652    21718938.804 7  88935422.676 7     -1519.646          43.913                                                                  
> 2020 06 11 13 27 45.0000000  0 11      -0.000000000000
G20  21282861.770 7 111842195.951 7       -27.592          45.685    21282861.453 7  87149763.715 7       -21.499          42.383                                                                  
G27  20458628.253 8 107510819.173 8       976.756          49.136    20458629.347 8  83774663.552 8       761.109          49.058    20458630.041 8  83774665.552 8       761.108          49.780  
G10  22068345.773 8 115969943.187 8      2290.904          48.008    22068346.920 7  90366194.813 7      1785.120          47.848    22068346.827 7  90366196.818 7      1785.120          46.610  
G18  22934436.671 7 120521253.846 7     -3126.187          44.819    22934436.641 6  93912678.626 6     -2435.990          40.041    22934436.954 7  93912674.640 7     -2435.989          45.023  
G07  24425466.536 7 128356698.732 7       729.386          42.411    24425466.642 6 100018206.473 6       568.353          39.305    24425467.060 7 100018207.480 7       568.352          43.918  
G11  24621317.949 7 129385911.822 7      3506.170          46.295    24621319.230 5 100820179.721 5      2732.082          35.228                                                                  
G26  22518534.860 7 118335684.295 7     -3296.271          43.436    22518536.752 7  92209635.726 7     -2568.525          43.096    22518536.994 7  92209613.731 7     -2568.526          44.762  
G15  24858950.122 7 130634649.513 7       638.878          44.207    24858948.937 6 101793242.246 6       497.828          41.602    24858949.796 5 101793255.257 5       497.827          35.787  
G08  22258683.811 7 116970180.811 7      2611.323          43.142    22258686.741 7  91145596.282 7      2034.797          43.022    22258687.820 7  91145606.290 7      2034.797          46.731  
G16  20733789.649 7 108956797.018 7     -1558.953          44.989    20733788.626 7  84901396.860 7     -1214.771          43.906                                                                  
G21  21719311.493 7 114135744.769 7     -1949.854          46.933    21719309.910 7  88936942.295 7     -1519.368          42.929                                                                  
> 2020 06 11 13 27 46.0000000  0 11      -0.000000000000
G20  21282867.109 7 111842224.087 7       -28.524          44.923    21282866.786 6  87149785.638 6       -22.227          41.416                                                                  
G27  20458442.431 8 107509842.678 8       976.203          48.832    20458443.521 8  83773902.645 8       760.677          48.766    20458444.215 8  83773904.645 8       760.677          48.281  
G10  22067909.906 7 115967652.704 7      2290.124          47.784    22067911.053 7  90364410.018 7      1784.511          47.634    22067910.967 7  90364412.024 7      1784.511          45.716  
G18  22935031.575 7 120524380.133 7     -3126.565          43.905    22935031.566 6  93915114.698 6     -2436.285          37.339    22935031.876 7  93915110.707 7     -2436.285          43.854  
G07  24425327.814 6 128355969.632 6       728.789          41.853    24425327.890 6 100017638.340 6       567.887          37.426    24425328.300 6 100017639.349 6       567.886          41.746  
G11  24620650.768 7 129382405.731 7      3506.097          45.550    24620652.028 5 100817447.695 5      2732.024          34.705                                                                  
G26  22519162.167 7 118338980.775 7     -3296.754          43.020    22519164.055 7  92212204.408 7     -2568.902          43.021    22519164.311 7  92212182.413 7     -2568.902          43.641  
G15  24858828.631 7 130634011.048 7       638.171          44.142    24858827.414 6 101792744.742 6       497.276          41.259    24858828.298 5 101792757.750 5       497.275          34.122  
G08  22258186.954 7 116967569.747 7      2610.628          42.548    22258189.882 7  91143561.685 7      2034.255          42.582    22258190.962 7  91143571.694 7      2034.256          45.645  
G16  20734086.339 7 108958356.242 7     -1559.403          44.649    20734085.333 7  84902611.836 7     -1215.122          43.549                                                                  
G21  21719682.605 7 114137694.885 7     -1950.201          46.701    21719681.002 6  88938461.867 6     -1519.638          41.874                                                                  
> 2020 06 11 13 27 47.0000000  0 11      -0.000000000000
G20  21282872.515 7 111842252.610 7       -29.001          45.438    21282872.195 7  87149807.861 7       -22.599          43.990                                                                  
G27  20458256.622 8 107508866.305 8       976.064          49.263    20458257.721 8  83773141.836 8       760.569          49.571    20458258.416 8  83773143.835 8       760.569          50.406  
G10  22067474.081 8 115965362.417 8      2289.785          48.149    22067475.226 8  90362625.374 8      1784.247          48.038    22067475.137 8  90362627.381 8      1784.247          48.961  
G18  22935626.429 7 120527506.316 7     -3126.383          44.164    22935626.468 6  93917550.686 6     -2436.142          41.248    22935626.777 7  93917546.686 7     -2436.144          47.518  
G07  24425189.162 7 128355240.898 7       728.348          43.021    24425189.197 6 100017070.501 6       567.545          40.774    24425189.628 7 100017071.508 7       567.544          45.228  
G11  24619983.536 7 129378899.413 7      3506.160          45.481    24619984.753 6 100814715.507 6      2732.075          37.771                                                                  
G26  22519789.464 7 118342277.257 7     -3296.795          43.715    22519791.365 7  92214773.090 7     -2568.934          43.668    22519791.625 7  92214751.094 7     -2568.935          46.929  
G15  24858707.191 7 130633372.907 7       637.721          44.510    24858705.933 7 101792247.496 7       496.928          43.611    24858706.817 6 101792260.501 6       496.927          36.859  
G08  22257690.072 7 116964958.595 7      2610.881          42.600    22257693.001 7  91141527.022 7      2034.453          42.736    22257694.078 8  91141537.031 8      2034.453          49.138  
G16  20734383.115 7 108959915.789 7     -1559.937          45.239    20734382.104 7  84903827.067 7     -1215.537          44.078                                                                  
G21  21720053.711 7 114139644.995 7     -1950.324          46.980    21720052.100 7  88939981.433 7     -1519.733          44.319                                                                  
> 2020 06 11 13 27 48.0000000  0 11      -0.000000000000
G20  21282878.110 7 111842282.104 7       -29.861          46.022    21282877.812 6  87149830.842 6       -23.268          41.931                                                                  
G27  20458070.956 8 107507890.681 8       975.558          49.540    20458072.063 8  83772381.609 8       760.175          49.556    20458072.753 8  83772383.608 8       760.174          49.479  
G10  22067038.401 8 115963072.929 8      2289.346          48.670    22067039.553 8  90360841.359 8      1783.906          48.644    22067039.463 7  90360843.368 7      1783.906          45.969  
G18  22936221.388 7 120530633.003 7     -3126.570          44.307    22936221.462 6  93919987.063 6     -2436.290          37.895    22936221.768 7  93919983.062 7     -2436.291          44.509  
G07  24425050.687 7 128354513.049 7       727.704          43.395    24425050.734 6 100016503.348 6       567.043          38.174    24425051.114 7 100016504.353 7       567.042          43.660  
G11  24619316.383 7 129375393.503 7      3505.979          45.700    24619317.598 5 100811983.644 5      2731.937          33.560                                                                  
G26  22520416.868 7 118345574.377 7     -3297.253          43.635    22520418.797 7  92217342.272 7     -2569.291          43.777    22520419.037 7  92217320.275 7     -2569.291          43.673  
G15  24858585.922 7 130632735.682 7       637.140          44.856    24858584.649 6 101791750.954 6       496.473          41.862    24858585.555 5 101791763.958 5       496.472          35.958  
G08  22257193.323 7 116962348.000 7      2610.726          43.857    22257196.225 7  91139492.797 7      2034.333          43.984    22257197.290 7  91139502.807 7      2034.333          46.073  
G16  20734680.059 7 108961476.261 7     -1560.602          45.755    20734679.057 7  84905043.021 7     -1216.054          43.121                                                                  
G21  21720424.927 7 114141595.667 7     -1950.709          47.364    21720423.307 7  88941501.434 7     -1520.034          42.561                                                                  
> 2020 06 11 13 27 49.0000000  0 11      -0.000000000000
G20  21282883.785 7 111842311.985 7       -29.953          44.628    21282883.490 7  87149854.128 7       -23.340          44.157                                                                  
G27  20457885.315 8 107506915.181 8       975.598          48.131    20457886.429 8  83771621.477 8       760.205          48.114    20457887.119 8  83771623.476 8       760.205          50.680  
G10  22066602.766 7 115960783.670 7      2289.216          47.135    22066603.922 7  90359057.526 7      1783.805          47.067    22066603.836 8  90359059.535 8      1783.805          48.153  
G18  22936816.337 7 120533759.611 7     -3126.293          43.178    22936816.448 6  93922423.368 6     -2436.076          41.234    22936816.747 7  93922419.374 7     -2436.075          46.707  
G07  24424912.263 6 128353785.525 6       727.544          41.170    24424912.289 6 100015936.443 6       566.917          40.524    24424912.666 7 100015937.448 7       566.917          45.349  
G11  24618649.208 7 129371887.358 7      3506.497          43.404    24618650.390 5 100809251.601 5      2732.344          35.960                                                                  
G26  22521044.283 6 118348871.507 6     -3297.158          41.913    22521046.220 6  92219911.459 6     -2569.218          41.571    22521046.435 7  92219889.462 7     -2569.218          45.824  
G15  24858464.722 7 130632098.760 7       637.064          42.864    24858463.407 7 101791254.639 7       496.411          43.155    24858464.362 6 101791267.646 6       496.411          38.629  
G08  22256696.534 6 116959737.322 6      2610.920          41.374    22256699.430 6  91137458.501 6      2034.483          40.956    22256700.493 8  91137468.510 8      2034.484          48.220  
G16  20734977.073 7 108963037.054 7     -1560.721          44.010    20734976.065 7  84906259.224 7     -1216.147          43.840                                                                  
G21  21720796.145 7 114143546.334 7     -1950.552          46.072    21720794.526 7  88943021.432 7     -1519.913          45.320                                                                  
> 2020 06 11 13 27 50.0000000  0 11      -0.000000000000
G20  21282889.410 7 111842341.603 7       -29.512          45.640    21282889.128 7  87149877.207 7       -22.996          42.229                                                                  
G27  20457699.580 8 107505939.185 8       976.145          49.206    20457700.697 8  83770860.960 8       760.632          49.297    20457701.388 8  83770862.960 8       760.632          49.761  
G10  22066167.052 7 115958493.978 7      2289.934          47.736    22066168.205 8  90357273.352 8      1784.366          48.397    22066168.115 7  90357275.361 7      1784.366          47.291  
G18  22937411.158 7 120536885.481 7     -3125.508          44.834    22937411.287 6  93924859.110 6     -2435.463          39.952    22937411.576 7  93924855.117 7     -2435.463          46.075  
G07  24424773.783 7 128353057.676 7       728.164          42.621    24424773.781 6 100015369.278 6       567.398          39.677    24424774.142 7 100015370.284 7       567.398          44.113  
G11  24617981.860 7 129368380.404 7      3507.540          45.449    24617982.993 5 100806518.924 5      2733.156          34.207                                                                  
G26  22521671.590 7 118352167.997 7     -3296.189          43.269    22521673.518 7  92222480.147 7     -2568.463          43.396    22521673.732 7  92222458.152 7     -2568.463          45.032  
G15  24858343.466 7 130631461.534 7       637.280          44.554    24858342.113 7 101790758.095 7       496.580          44.059    24858343.054 5 101790771.107 5       496.580          35.699  
G08  22256199.609 7 116957125.955 7      2611.660          42.892    22256202.506 7  91135423.668 7      2035.060          43.150    22256203.563 7  91135433.678 7      2035.060          47.796  
G16  20735274.010 7 108964597.508 7     -1560.657          45.025    20735273.007 7  84907475.161 7     -1216.097          43.516                                                                  
G21  21721167.222 7 114145496.323 7     -1949.872          47.232    21721165.604 7  88944540.900 7     -1519.382          43.393                                                                  
> 2020 06 11 13 27 51.0000000  0 11      -0.000000000000
G20  21282894.972 7 111842370.989 7       -29.306          44.553    21282894.714 7  87149900.104 7       -22.836          43.658                                                                  
G27  20457513.763 8 107504962.712 8       976.366          48.722    20457514.875 8  83770100.071 8       760.804          48.830    20457515.563 8  83770102.072 8       760.804          50.195  
G10  22065731.258 7 115956203.911 7      2290.024          47.309    22065732.423 7  90355488.888 7      1784.436          47.074    22065732.327 7  90355490.896 7      1784.436          47.765  
G18  22938005.842 7 120540010.656 7     -3125.281          43.291    22938005.990 6  93927294.309 6     -2435.287          41.632    22938006.280 7  93927290.315 7     -2435.286          46.702  
G07  24424635.252 6 128352329.531 6       728.037          41.917    24424635.220 6 100014801.877 6       567.296          40.935    24424635.585 7 100014802.888 7       567.297          44.248  
G11  24617314.360 7 129364872.617 7      3507.802          44.922    24617315.504 6 100803785.576 6      2733.355          37.233                                                                  
G26  22522298.771 7 118355463.931 7     -3296.062          42.730    22522300.711 7  92225048.410 7     -2568.362          42.620    22522300.928 7  92225026.415 7     -2568.362          45.131  
G15  24858222.165 7 130630824.050 7       637.022          43.669    24858220.774 7 101790261.360 7       496.380          43.439    24858221.705 6 101790274.368 6       496.380          36.979  
G08  22255702.561 6 116954513.918 6      2612.270          41.989    22255705.456 7  91133388.315 7      2035.535          42.276    22255706.517 7  91133398.326 7      2035.536          47.895  
G16  20735570.893 7 108966157.671 7     -1560.290          44.363    20735569.899 7  84908690.877 7     -1215.809          44.000                                                                  
G21  21721538.186 7 114147445.680 7     -1949.264          46.693    21721536.557 7  88946059.880 7     -1518.908          44.543                                                                  
> 2020 06 11 13 27 52.0000000  0 11      -0.000000000000
G20  21282900.559 7 111842400.504 7       -29.519          43.186    21282900.325 7  87149923.107 7       -23.001          43.167                                                                  
G27  20457327.906 7 107503986.092 7       976.510          47.381    20457329.027 7  83769339.069 7       760.917          47.511    20457329.717 8  83769341.069 8       760.917          49.838  
G10  22065295.461 7 115953913.767 7      2289.934          46.176    22065296.625 7  90353704.362 7      1784.365          45.926    22065296.536 7  90353706.370 7      1784.365          47.405  
G18  22938600.457 6 120543135.449 6     -3124.646          41.508    22938600.625 6  93929729.217 6     -2434.790          40.356    22938600.928 7  93929725.223 7     -2434.790          45.877  
G07  24424496.722 6 128351601.410 6       728.160          40.681    24424496.649 6 100014234.503 6       567.393          40.716    24424497.035 7 100014235.518 7       567.394          44.072  
G11  24616646.761 7 129361364.318 7      3508.337          42.802    24616647.881 6 100801051.829 6      2733.770          36.903                                                                  
G26  22522925.898 6 118358759.569 6     -3295.665          41.102    22522927.857 6  92227616.443 6     -2568.052          40.602    22522928.066 7  92227594.448 7     -2568.052          44.972  
G15  24858100.858 7 130630186.575 7       637.289          42.409    24858099.451 6 101789764.630 6       496.589          41.686    24858100.428 6 101789777.638 6       496.589          36.523  
G08  22255205.428 6 116951901.537 6      2612.253          40.566    22255208.341 6  91131352.691 6      2035.522          39.663    22255209.398 7  91131362.702 7      2035.522          47.516  
G16  20735867.791 7 108967717.875 7     -1560.387          42.762    20735866.779 7  84909906.622 7     -1215.886          42.695                                                                  
G21  21721909.093 7 114149394.745 7     -1949.061          45.680    21721907.452 7  88947578.631 7     -1518.750          44.928                                                                  
> 2020 06 11 13 27 53.0000000  0 11      -0.000000000000
G20  21282906.130 7 111842429.895 7       -29.416          44.999    21282905.901 6  87149946.005 6       -22.923          40.446                                                                  
G27  20457141.977 8 107503009.091 8       977.152          49.163    20457143.109 8  83768577.773 8       761.418          49.391    20457143.792 8  83768579.774 8       761.418          49.049  
G10  22064859.599 8 115951623.331 8      2290.417          48.346    22064860.767 8  90351919.608 8      1784.742          48.580    22064860.682 7  90351921.617 7      1784.742          46.802  
G18  22939194.932 7 120546259.633 7     -3124.012          43.555    22939195.167 6  93932163.650 6     -2434.294          38.117    22939195.449 7  93932159.652 7     -2434.295          45.041  
G07  24424358.158 7 128350873.135 7       728.385          42.918    24424358.069 6 100013667.019 6       567.570          37.204    24424358.437 7 100013668.029 7       567.569          43.259  
G11  24615979.022 7 129357855.294 7      3509.107          44.271    24615980.146 5 100798317.513 5      2734.371          31.897                                                                  
G26  22523552.952 7 118362054.738 7     -3295.053          43.447    22523554.905 7  92230184.108 7     -2567.574          43.989    22523555.120 7  92230162.113 7     -2567.574          44.365  
G15  24857979.525 7 130629548.917 7       637.549          44.274    24857978.080 6 101789267.759 6       496.794          40.951    24857979.038 5 101789280.768 5       496.794          35.409  
G08  22254708.208 7 116949288.546 7      2613.203          43.172    22254711.114 7  91129316.593 7      2036.262          43.537    22254712.165 7  91129326.603 7      2036.262          46.839  
G16  20736164.655 7 108969277.907 7     -1560.184          45.243    20736163.668 6  84911122.230 6     -1215.728          41.956                                                                  
G21  21722279.905 7 114151343.282 7     -1948.375          47.329    21722278.250 6  88949096.974 6     -1518.214          41.429                                                                  
> 2020 06 11 13 27 54.0000000  0 11      -0.000000000000
G20  21282911.749 7 111842459.464 7       -29.461          45.931    21282911.538 6  87149969.046 6       -22.957          41.967                                                                  
G27  20456956.036 8 107502032.028 8       977.183          49.241    20456957.175 8  83767816.428 8       761.443          49.098    20456957.862 8  83767818.428 8       761.443          49.824  
G10  22064423.733 7 115949332.898 7      2290.490          47.881    22064424.908 7  90350134.856 7      1784.799          47.621    22064424.830 7  90350136.865 7      1784.799          47.217  
G18  22939789.371 7 120549383.536 7     -3123.628          44.509    22939789.639 6  93934597.861 6     -2433.996          39.960    22939789.917 7  93934593.865 7     -2433.996          45.732  
G07  24424219.583 7 128350144.948 7       728.471          42.714    24424219.522 6 100013099.604 6       567.638          39.107    24424219.860 7 100013100.608 7       567.636          44.057  
G11  24615311.204 7 129354345.863 7      3509.783          44.801    24615312.333 5 100795582.903 5      2734.897          35.154                                                                  
G26  22524179.961 7 118365349.706 7     -3294.803          43.745    22524181.921 7  92232751.617 7     -2567.379          43.913    22524182.124 7  92232729.621 7     -2567.379          44.789  
G15  24857858.188 7 130628911.393 7       637.732          44.275    24857856.719 7 101788770.993 7       496.937          42.261    24857857.700 6 101788784.001 6       496.936          36.726  
G08  22254210.934 7 116946675.312 7      2613.400          42.859    22254213.842 7  91127280.308 7      2036.415          42.656    22254214.876 7  91127290.317 7      2036.415          47.328  
G16  20736461.532 7 108970838.031 7     -1560.113          45.224    20736460.540 7  84912337.909 7     -1215.673          43.540                                                                  
G21  21722650.666 7 114153291.581 7     -1948.067          47.601    21722649.001 7  88950615.128 7     -1517.975          42.979                                                                  
> 2020 06 11 13 27 55.0000000  0 11      -0.000000000000
G20  21282917.396 7 111842489.233 7       -29.942          44.051    21282917.195 6  87149992.242 6       -23.332          41.433                                                                  
G27  20456770.085 8 107501054.901 8       977.268          48.212    20456771.229 8  83767055.032 8       761.508          48.325    20456771.919 7  83767057.031 7       761.508          47.673  
G10  22063987.878 7 115947042.484 7      2290.573          47.021    22063989.054 7  90348350.118 7      1784.864          46.741    22063988.966 7  90348352.129 7      1784.864          45.719  
G18  22940383.756 7 120552507.139 7     -3123.226          42.846    22940384.027 6  93937031.835 6     -2433.682          39.645    22940384.348 7  93937027.840 7     -2433.683          44.090  
G07  24424081.053 6 128349416.914 6       727.978          41.133    24424081.014 6 100012532.300 6       567.252          38.619    24424081.292 6 100012533.307 6       567.252          41.146  
G11  24614643.310 7 129350835.997 7      3510.152          43.755    24614644.421 5 100792847.933 5      2735.184          32.487                                                                  
G26  22524806.962 7 118368644.520 7     -3294.545          42.636    22524808.912 6  92235319.003 6     -2567.178          41.783    22524809.108 7  92235297.010 7     -2567.178          43.174  
G15  24857736.891 7 130628274.016 7       637.596          43.642    24857735.420 6 101788274.343 6       496.832          40.531    24857736.378 5 101788287.345 5       496.830          33.849  
G08  22253713.618 6 116944061.804 6      2613.836          41.938    22253716.509 6  91125243.809 6      2036.756          41.363    22253717.544 7  91125253.816 7      2036.755          45.852  
G16  20736758.448 7 108972398.282 7     -1560.293          44.083    20736757.459 7  84913553.687 7     -1215.813          42.728                                                                  
G21  21723021.370 7 114155239.665 7     -1948.015          46.201    21723019.713 6  88952133.114 6     -1517.934          41.685                                                                  
> 2020 06 11 13 27 56.0000000  0 11      -0.000000000000
G20  21282923.046 7 111842519.033 7       -29.690          43.999    21282922.862 7  87150015.462 7       -23.135          43.914                                                                  
G27  20456584.102 8 107500077.576 8       977.553          48.369    20456585.243 8  83766293.478 8       761.730          48.304    20456585.939 8  83766295.477 8       761.730          50.228  
G10  22063551.995 7 115944751.965 7      2290.742          46.883    22063553.182 7  90346565.300 7      1784.995          47.062    22063553.094 7  90346567.310 7      1784.995          47.825  
G18  22940978.062 7 120555630.340 7     -3122.891          43.018    22940978.346 6  93939465.500 6     -2433.422          41.544    22940978.664 7  93939461.501 7     -2433.422          46.293  
G07  24423942.515 7 128348688.838 7       728.094          42.000    24423942.469 6 100011964.960 6       567.342          39.963    24423942.738 7 100011965.974 7       567.344          44.554  
G11  24613975.308 7 129347325.630 7      3510.680          44.199    24613976.428 6 100790112.584 6      2735.595          37.154                                                                  
G26  22525433.883 7 118371939.028 7     -3294.400          42.206    22525435.837 7  92237886.150 7     -2567.066          42.602    22525436.028 7  92237864.157 7     -2567.065          45.827  
G15  24857615.597 7 130627636.615 7       637.381          44.044    24857614.131 7 101787777.669 7       496.663          43.697    24857615.107 6 101787790.674 6       496.663          37.367  
G08  22253216.216 6 116941447.911 6      2614.165          41.492    22253219.110 6  91123207.007 6      2037.011          41.738    22253220.138 8  91123217.015 8      2037.011          48.065  
G16  20737055.347 7 108973958.520 7     -1560.105          43.966    20737054.364 7  84914769.459 7     -1215.666          43.669                                                                  
G21  21723392.021 7 114157187.410 7     -1947.551          46.126    21723390.353 7  88953650.839 7     -1517.572          44.893                                                                  
> 2020 06 11 13 27 57.0000000  0 11      -0.000000000000
G20  21282928.726 7 111842548.985 7       -30.053          44.261    21282928.565 6  87150038.807 6       -23.417          41.023                                                                  
G27  20456398.103 8 107499100.157 8       977.417          48.305    20456399.241 8  83765531.851 8       761.624          48.328    20456399.938 8  83765533.850 8       761.623          48.391  
G10  22063116.106 7 115942461.404 7      2290.552          46.960    22063117.303 7  90344780.449 7      1784.847          47.117    22063117.216 7  90344782.459 7      1784.847          45.595  
G18  22941572.311 7 120558753.191 7     -3122.806          43.221    22941572.620 6  93941898.890 6     -2433.355          40.196    22941572.922 7  93941894.891 7     -2433.356          43.943  
G07  24423804.004 6 128347960.854 6       727.630          41.653    24423803.974 6 100011397.698 6       566.982          39.235    24423804.211 7 100011398.716 7       566.983          42.075  
G11  24613307.219 7 129343814.770 7      3510.917          44.379    24613308.300 5 100787376.841 5      2735.780          34.791                                                                  
G26  22526060.768 7 118375233.298 7     -3294.415          42.371    22526062.712 7  92240453.113 7     -2567.077          42.244    22526062.898 7  92240431.120 7     -2567.077          42.857  
G15  24857494.327 7 130626999.309 7       637.099          43.829    24857492.845 7 101787281.065 7       496.443          42.101    24857493.819 5 101787294.081 5       496.445          34.926  
G08  22252718.772 6 116938833.711 6      2614.449          41.778    22252721.650 7  91121169.971 7      2037.234          42.042    22252722.672 7  91121179.978 7      2037.233          45.904  
G16  20737352.258 7 108975518.838 7     -1560.430          44.129    20737351.284 7  84915985.296 7     -1215.919          42.772                                                                  
G21  21723762.623 7 114159134.870 7     -1947.443          46.385    21723760.950 7  88955168.337 7     -1517.489          42.471                                                                  
> 2020 06 11 13 27 58.0000000  0 11      -0.000000000000
G20  21282934.359 7 111842578.732 7       -29.540          43.766    21282934.239 7  87150061.983 7       -23.017          43.522                                                                  
G27  20456212.013 7 107498122.284 7       978.062          47.512    20456213.154 7  83764769.871 7       762.126          47.226    20456213.862 8  83764771.871 8       762.126          49.331  
G10  22062680.153 7 115940170.484 7      2291.161          46.240    22062681.355 7  90342995.316 7      1785.321          46.604    22062681.268 7  90342997.325 7      1785.321          46.408  
G18  22942166.440 7 120561875.373 7     -3121.813          42.400    22942166.763 6  93944331.754 6     -2432.583          40.580    22942167.053 7  93944327.760 7     -2432.582          45.099  
G07  24423665.430 6 128347232.585 6       728.440          40.718    24423665.379 6 100010830.223 6       567.615          39.886    24423665.618 7 100010831.235 7       567.615          43.059  
G11  24612638.977 7 129340303.147 7      3512.089          43.703    24612640.078 6 100784640.515 6      2736.691          36.013                                                                  
G26  22526687.543 6 118378527.003 6     -3293.283          41.201    22526689.487 6  92243019.635 6     -2566.196          41.300    22526689.664 7  92242997.641 7     -2566.195          43.842  
G15  24857373.002 7 130626361.737 7       637.834          42.870    24857371.496 7 101786784.256 7       497.015          42.669    24857372.434 5 101786797.272 5       497.016          35.469  
G08  22252221.201 6 116936218.863 6      2615.169          40.633    22252224.064 6  91119132.426 6      2037.794          40.525    22252225.066 7  91119142.434 7      2037.794          46.688  
G16  20737649.129 7 108977078.886 7     -1559.808          43.021    20737648.146 7  84917200.915 7     -1215.435          42.931                                                                  
G21  21724133.107 7 114161081.729 7     -1946.597          45.682    21724131.434 7  88956685.368 7     -1516.830          44.171                                                                  
> 2020 06 11 13 27 59.0000000  0 11      -0.000000000000
G20  21282940.083 7 111842608.970 7       -31.620          44.519    21282939.991 6  87150085.546 6       -24.639          40.715                                                                  
G27  20456025.959 8 107497144.614 8       976.724          48.303    20456027.107 7  83764008.049 7       761.083          47.996    20456027.815 8  83764010.049 8       761.083          48.012  
G10  22062244.264 7 115937879.863 7      2289.668          47.027    22062245.456 7  90341210.416 7      1784.157          47.185    22062245.376 7  90341212.424 7      1784.157          44.951  
G18  22942760.551 7 120564997.538 7     -3123.118          43.578    22942760.927 6  93946764.605 6     -2433.601          37.128    22942761.189 7  93946760.615 7     -2433.600          43.816  
G07  24423526.947 6 128346504.734 6       726.769          41.267    24423526.870 6 100010263.060 6       566.311          36.701    24423527.103 6 100010264.078 6       566.313          41.271  
G11  24611970.728 7 129336791.366 7      3511.073          44.440    24611971.790 5 100781904.059 5      2735.900          33.654                                                                  
G26  22527314.319 7 118381820.798 7     -3294.642          42.040    22527316.275 6  92245586.226 6     -2567.255          41.825    22527316.451 7  92245564.231 7     -2567.255          42.193  
G15  24857251.739 7 130625724.565 7       636.150          43.567    24857250.225 7 101786287.760 7       495.704          42.253    24857251.176 5 101786300.773 5       495.704          34.008  
G08  22251723.630 6 116933604.010 6      2614.094          40.982    22251726.476 6  91117094.877 6      2036.957          41.125    22251727.465 7  91117104.885 7      2036.957          45.393  
G16  20737946.062 7 108978639.341 7     -1561.557          43.749    20737945.089 7  84918416.851 7     -1216.798          42.540                                                                  
G21  21724503.608 7 114163028.643 7     -1947.829          46.432    21724501.926 6  88958202.442 6     -1517.790          41.961                                                                  
> 2020 06 11 13 28  0.0000000  0 11      -0.000000000000
G20  21282946.060 7 111842640.414 7       -32.252          43.377    21282945.976 7  87150110.044 7       -25.132          43.040                                                                  
G27  20455840.094 7 107496167.931 7       976.221          47.583    20455841.247 7  83763246.994 7       760.690          47.611    20455841.951 8  83763248.994 8       760.690          49.411  
G10  22061808.569 7 115935590.291 7      2289.234          46.106    22061809.757 7  90339426.331 7      1783.819          46.085    22061809.683 7  90339428.339 7      1783.819          46.779  
G18  22943354.809 7 120568120.453 7     -3123.204          42.384    22943355.225 6  93949198.034 6     -2433.670          41.926    22943355.467 7  93949194.046 7     -2433.668          45.466  
G07  24423388.688 6 128345778.025 6       726.341          39.957    24423388.595 6 100009696.795 6       565.979          39.298    24423388.814 7 100009697.806 7       565.978          43.076  
G11  24611302.595 7 129333280.237 7      3511.026          43.366    24611303.658 6 100779168.118 6      2735.865          36.569                                                                  
G26  22527941.266 6 118385115.463 6     -3294.844          41.217    22527943.233 6  92248153.492 6     -2567.413          41.389    22527943.405 7  92248131.497 7     -2567.413          44.215  
G15  24857130.696 7 130625088.561 7       635.477          42.472    24857129.193 7 101785792.178 7       495.179          42.624    24857130.123 6 101785805.189 6       495.180          36.063  
G08  22251226.203 6 116930989.968 6      2613.742          40.339    22251229.042 6  91115057.961 6      2036.682          40.251    22251230.030 7  91115067.970 7      2036.682          47.122  
G16  20738243.228 7 108980200.959 7     -1562.151          42.820    20738242.275 7  84919633.695 7     -1217.262          42.781                                                                  
G21  21724874.264 7 114164976.382 7     -1948.149          45.646    21724872.582 7  88959720.161 7     -1518.039          44.793                                                                  
> 2020 06 11 13 28  1.0000000  0 11      -0.000000000000
G20  21282952.322 7 111842673.410 7       -33.513          44.402    21282952.246 6  87150135.756 6       -26.115          41.919                                                                  
G27  20455654.474 8 107495192.543 8       975.097          48.332    20455655.633 7  83762486.950 7       759.815          47.786    20455656.346 8  83762488.950 8       759.815          49.002  
G10  22061373.142 7 115933302.121 7      2287.641          46.909    22061374.328 7  90337643.340 7      1782.577          47.090    22061374.247 7  90337645.349 7      1782.577          46.681  
G18  22943949.275 7 120571244.437 7     -3124.053          43.193    22943949.693 6  93951632.299 6     -2434.333          38.823    22943949.935 7  93951628.314 7     -2434.331          45.069  
G07  24423250.707 6 128345052.822 6       724.933          41.170    24423250.590 6 100009131.705 6       564.883          37.666    24423250.812 7 100009132.713 7       564.882          42.731  
G11  24610634.625 7 129329770.071 7      3509.953          44.532    24610635.690 5 100776432.928 5      2735.029          32.322                                                                  
G26  22528568.435 7 118388411.321 7     -3296.145          42.213    22528570.405 7  92250721.688 7     -2568.427          42.314    22528570.587 7  92250699.695 7     -2568.427          44.007  
G15  24857009.959 7 130624454.060 7       634.166          43.588    24857008.437 7 101785297.765 7       494.158          42.081    24857009.418 5 101785310.776 5       494.158          35.333  
G08  22250728.966 6 116928377.062 6      2612.505          41.855    22250731.824 7  91113021.931 7      2035.718          42.463    22250732.810 7  91113031.942 7      2035.719          46.847  
G16  20738540.668 7 108981764.072 7     -1563.720          43.630    20738539.722 6  84920851.700 6     -1218.485          41.848                                                                  
G21  21725245.146 7 114166925.270 7     -1949.113          46.357    21725243.458 7  88961238.777 7     -1518.789          42.699                                                                  
> 2020 06 11 13 28  2.0000000  0 11      -0.000000000000
G20  21282958.752 7 111842707.328 7       -33.948          44.090    21282958.698 6  87150162.182 6       -26.454          41.083                                                                  
G27  20455468.986 8 107494217.825 8       974.874          48.337    20455470.148 8  83761727.430 8       759.641          48.261    20455470.860 8  83761729.430 8       759.642          49.411  
G10  22060937.844 7 115931014.660 7      2287.594          47.044    22060939.042 7  90335860.905 7      1782.541          47.169    22060938.955 7  90335862.913 7      1782.541          46.828  
G18  22944543.818 7 120574368.865 7     -3124.165          43.185    22944544.282 6  93954066.915 6     -2434.419          39.328    22944544.494 7  93954062.928 7     -2434.418          45.337  
G07  24423112.873 6 128344328.458 6       724.329          40.926    24423112.740 6 100008567.268 6       564.413          39.213    24423112.958 7 100008568.276 7       564.412          43.162  
G11  24609966.721 7 129326260.211 7      3510.160          44.432    24609967.778 5 100773697.968 5      2735.191          34.974                                                                  
G26  22529195.698 6 118391707.723 6     -3296.273          41.985    22529197.683 6  92253290.316 6     -2568.526          41.855    22529197.855 7  92253268.321 7     -2568.526          43.816  
G15  24856889.368 7 130623820.416 7       633.661          43.216    24856887.860 7 101784804.016 7       493.764          42.101    24856888.839 5 101784817.028 5       493.764          35.907  
G08  22250231.831 6 116925764.609 6      2612.487          41.568    22250234.698 6  91110986.252 6      2035.704          41.388    22250235.674 7  91110996.262 7      2035.704          47.012  
G16  20738838.274 7 108983328.012 7     -1563.910          43.705    20738837.338 7  84922070.353 7     -1218.632          42.803                                                                  
G21  21725616.103 7 114168874.659 7     -1949.216          46.386    21725614.415 7  88962757.780 7     -1518.870          42.290                                                                  
> 2020 06 11 13 28  3.0000000  0 11      -0.000000000000
G20  21282965.110 7 111842740.821 7       -33.207          44.509    21282965.060 6  87150188.284 6       -25.875          41.855                                                                  
G27  20455283.369 8 107493242.428 8       975.901          48.423    20455284.534 8  83760967.383 8       760.443          49.085    20455285.248 8  83760969.384 8       760.443          49.177  
G10  22060502.435 7 115928726.626 7      2288.364          47.130    22060503.638 7  90334078.025 7      1783.142          47.658    22060503.557 7  90334080.033 7      1783.142          46.305  
G18  22945138.187 7 120577492.403 7     -3123.040          43.122    22945138.681 6  93956500.838 6     -2433.541          38.666    22945138.898 7  93956496.853 7     -2433.540          44.839  
G07  24422974.940 6 128343603.594 6       725.200          41.038    24422974.821 6 100008002.455 6       565.095          36.789    24422975.008 7 100008003.451 7       565.092          42.740  
G11  24609298.623 7 129322749.334 7      3511.542          44.715    24609299.649 5 100770962.231 5      2736.270          34.189                                                                  
G26  22529822.814 7 118395003.340 7     -3295.172          42.066    22529824.808 7  92255858.331 7     -2567.667          42.907    22529825.002 7  92255836.333 7     -2567.667          43.378  
G15  24856768.697 7 130623186.273 7       634.405          43.458    24856767.189 6 101784309.873 6       494.343          41.130    24856768.184 5 101784322.894 5       494.345          35.706  
G08  22249734.526 6 116923151.247 6      2613.976          41.680    22249737.395 6  91108949.868 6      2036.865          41.984    22249738.374 7  91108959.877 7      2036.865          46.531  
G16  20739135.774 7 108984891.473 7     -1563.087          43.872    20739134.851 7  84923288.636 7     -1217.991          42.009                                                                  
G21  21725986.897 7 114170823.225 7     -1948.070          46.551    21725985.208 6  88964276.143 6     -1517.977          41.307                                                                  
> 2020 06 11 13 28  4.0000000  0 11      -0.000000000000
G20  21282971.541 7 111842774.735 7       -34.218          45.367    21282971.520 7  87150214.711 7       -26.663          42.816                                                                  
G27  20455097.784 8 107492267.200 8       975.185          49.076    20455098.950 8  83760207.468 8       759.885          48.730    20455099.665 8  83760209.469 8       759.885          50.522  
G10  22060067.074 7 115926438.835 7      2287.777          47.979    22060068.284 8  90332295.334 8      1782.685          48.786    22060068.204 8  90332297.343 8      1782.685          48.473  
G18  22945732.551 7 120580615.868 7     -3123.306          44.356    22945733.063 6  93958934.707 6     -2433.747          40.430    22945733.281 7  93958930.721 7     -2433.747          47.108  
G07  24422837.104 6 128342879.088 6       724.580          41.824    24422836.930 6 100007437.906 6       564.611          39.827    24422837.143 7 100007438.906 7       564.610          44.783  
G11  24608630.497 7 129319238.276 7      3511.221          45.649    24608631.517 6 100768226.355 6      2736.021          38.368                                                                  
G26  22530449.938 7 118398298.997 7     -3295.640          42.923    22530451.941 7  92258426.375 7     -2568.032          43.851    22530452.165 7  92258404.378 7     -2568.033          45.800  
G15  24856648.079 7 130622552.476 7       633.839          44.153    24856646.561 7 101783816.004 7       493.901          43.856    24856647.565 6 101783829.028 6       493.903          38.058  
G08  22249237.226 7 116920537.859 7      2613.306          42.746    22249240.090 7  91106913.464 7      2036.343          43.586    22249241.072 8  91106923.473 8      2036.343          48.687  
G16  20739433.333 7 108986455.272 7     -1563.945          44.819    20739432.428 7  84924507.181 7     -1218.659          44.788                                                                  
G21  21726357.712 7 114172771.784 7     -1948.362          47.286    21726356.013 7  88965794.502 7     -1518.204          43.746                                                                  
> 2020 06 11 13 28  5.0000000  0 11      -0.000000000000
G20  21282977.965 7 111842808.527 7       -33.747          45.063    21282977.954 7  87150241.044 7       -26.296          43.406                                                                  
G27  20454912.120 8 107491291.614 8       975.846          48.886    20454913.296 8  83759447.272 8       760.401          48.760    20454914.015 8  83759449.273 8       760.401          49.994  
G10  22059631.663 7 115924150.765 7      2288.263          47.738    22059632.874 7  90330512.424 7      1783.064          47.683    22059632.805 7  90330514.432 7      1783.063          47.625  
G18  22946326.805 7 120583738.728 7     -3122.598          43.830    22946327.351 6  93961368.109 6     -2433.194          41.250    22946327.549 7  93961364.117 7     -2433.195          46.127  
G07  24422699.227 6 128342154.398 6       725.052          41.062    24422698.995 6 100006873.206 6       564.976          39.937    24422699.234 7 100006874.214 7       564.977          43.913  
G11  24607962.231 7 129315726.504 7      3512.177          45.318    24607963.236 6 100765489.908 6      2736.765          36.062                                                                  
G26  22531076.975 7 118401594.181 7     -3294.887          42.582    22531078.991 7  92260994.048 7     -2567.446          42.469    22531079.205 7  92260972.051 7     -2567.446          44.547  
G15  24856527.438 7 130621918.530 7       634.085          43.813    24856525.927 7 101783322.021 7       494.093          43.238    24856526.926 6 101783335.046 6       494.095          36.758  
G08  22248739.823 7 116917923.911 7      2614.339          42.368    22248742.678 7  91104876.624 7      2037.149          42.258    22248743.649 7  91104886.631 7      2037.148          47.785  
G16  20739730.877 7 108988018.889 7     -1563.459          44.506    20739729.961 7  84925725.579 7     -1218.281          44.144                                                                  
G21  21726728.425 7 114174719.828 7     -1947.624          46.984    21726726.722 7  88967312.462 7     -1517.628          44.847                                                                  
> 2020 06 11 13 28  6.0000000  0 11      -0.000000000000
G20  21282984.332 7 111842842.107 7       -34.096          43.382    21282984.339 7  87150267.214 7       -26.568          42.467                                                                  
G27  20454726.370 7 107490315.556 7       975.780          47.392    20454727.554 7  83758686.709 7       760.349          47.769    20454728.280 8  83758688.711 8       760.349          49.038  
G10  22059196.173 7 115921862.313 7      2288.102          46.046    22059197.395 7  90328729.217 7      1782.938          46.034    22059197.334 7  90328731.224 7      1782.938          46.003  
G18  22946920.928 6 120586860.907 6     -3122.341          41.914    22946921.478 6  93963800.981 6     -2432.993          40.983    22946921.690 7  93963796.982 7     -2432.995          44.603  
G07  24422561.281 6 128341429.438 6       724.769          39.524    24422561.057 6 100006308.301 6       564.757          37.777    24422561.284 7 100006309.311 7       564.757          42.629  
G11  24607293.824 7 129312213.935 7      3512.380          43.437    24607294.802 5 100762752.837 5      2736.921          35.962                                                                  
G26  22531703.901 6 118404888.780 6     -3294.789          40.698    22531705.934 6  92263561.267 6     -2567.369          41.072    22531706.149 7  92263539.270 7     -2567.369          42.871  
G15  24856406.744 6 130621284.298 6       633.819          41.814    24856405.233 7 101782827.814 7       493.885          42.284    24856406.200 5 101782840.839 5       493.887          35.544  
G08  22248242.272 6 116915309.310 6      2614.472          40.422    22248245.135 6  91102839.277 6      2037.253          40.588    22248246.109 7  91102849.283 7      2037.252          46.261  
G16  20740028.360 7 108989582.242 7     -1563.723          42.721    20740027.453 7  84926943.777 7     -1218.486          42.550                                                                  
G21  21727099.021 7 114176667.257 7     -1947.481          45.329    21727097.318 7  88968829.942 7     -1517.516          43.060                                                                  
> 2020 06 11 13 28  7.0000000  0 11      -0.000000000000
G20  21282990.789 7 111842876.119 7       -34.637          43.535    21282990.796 6  87150293.719 6       -26.989          40.772                                                                  
G27  20454540.668 7 107489339.689 7       975.347          47.689    20454541.851 8  83757926.294 8       760.012          48.257    20454542.572 8  83757928.296 8       760.012          49.060  
G10  22058760.731 7 115919574.128 7      2287.573          46.376    22058761.968 7  90326946.216 7      1782.526          46.769    22058761.915 7  90326948.223 7      1782.526          46.445  
G18  22947515.039 7 120589983.046 7     -3122.536          42.333    22947515.627 6  93966233.813 6     -2433.146          36.898    22947515.821 7  93966229.815 7     -2433.147          45.071  
G07  24422423.373 6 128340704.852 6       723.996          39.850    24422423.168 6 100005743.693 6       564.155          39.059    24422423.397 7 100005744.699 7       564.154          42.772  
G11  24606625.366 7 129308701.197 7      3512.256          43.908    24606626.344 5 100760015.643 5      2736.825          33.849                                                                  
G26  22532330.832 6 118408183.436 6     -3294.897          41.122    22532332.879 6  92266128.529 6     -2567.453          41.413    22532333.104 7  92266106.534 7     -2567.453          43.421  
G15  24856286.122 7 130620650.454 7       633.221          42.222    24856284.621 6 101782333.909 6       493.419          40.878    24856285.629 5 101782346.934 5       493.420          35.588  
G08  22247744.738 6 116912694.709 6      2614.083          40.643    22247747.589 6  91100801.924 6      2036.948          40.281    22247748.566 7  91100811.931 7      2036.948          46.652  
G16  20740325.910 7 108991145.964 7     -1564.408          43.195    20740325.030 7  84928162.260 7     -1219.020          42.655                                                                  
G21  21727469.617 7 114178614.711 7     -1947.754          45.727    21727467.916 7  88970347.443 7     -1517.728          42.333                                                                  
> 2020 06 11 13 28  8.0000000  0 11      -0.000000000000
G20  21282997.470 7 111842911.371 7       -36.224          45.261    21282997.500 6  87150321.193 6       -28.224          39.843                                                                  
G27  20454355.147 8 107488364.793 8       974.217          49.242    20454356.331 8  83757166.635 8       759.131          48.942    20454357.053 7  83757168.637 7       759.131          47.921  
G10  22058325.498 7 115917286.985 7      2286.500          47.964    22058326.741 7  90325164.026 7      1781.689          47.691    22058326.681 7  90325166.033 7      1781.689          45.803  
G18  22948109.290 7 120593105.928 7     -3123.415          44.105    22948109.882 6  93968667.228 6     -2433.831          38.025    22948110.112 7  93968663.229 7     -2433.832          44.304  
G07  24422285.709 6 128339981.397 6       722.818          41.531    24422285.502 6 100005179.961 6       563.235          36.554    24422285.711 6 100005180.969 6       563.236          41.110  
G11  24605957.041 7 129305189.079 7      3511.526          45.711    24605958.050 5 100757278.927 5      2736.256          33.330                                                                  
G26  22532957.923 7 118411478.970 7     -3296.101          43.221    22532959.988 7  92268696.473 7     -2568.392          42.584    22532960.233 7  92268674.481 7     -2568.391          42.614  
G15  24856165.708 7 130620017.756 7       631.890          44.020    24856164.225 6 101781840.895 6       492.381          41.800    24856165.186 5 101781853.921 5       492.382          33.406  
G08  22247247.329 7 116910080.847 7      2613.417          42.402    22247250.192 7  91098765.146 7      2036.429          42.098    22247251.165 7  91098775.153 7      2036.429          45.905  
G16  20740623.683 7 108992710.819 7     -1565.663          45.037    20740622.795 6  84929381.634 6     -1219.996          40.560                                                                  
G21  21727840.372 7 114180562.988 7     -1948.832          47.428    21727838.667 6  88971865.579 6     -1518.570          40.544                                                                  
> 2020 06 11 13 28  9.0000000  0 11      -0.000000000000
G20  21283004.410 7 111842947.940 7       -37.483          45.284    21283004.459 6  87150349.691 6       -29.205          39.705                                                                  
G27  20454169.830 8 107487390.983 8       972.993          49.134    20454171.018 8  83756407.823 8       758.177          49.217    20454171.738 7  83756409.826 7       758.177          47.533  
G10  22057890.491 7 115915001.018 7      2285.205          47.889    22057891.734 7  90323382.755 7      1780.681          47.901    22057891.685 7  90323384.759 7      1780.680          45.493  
G18  22948703.702 7 120596229.672 7     -3124.364          44.178    22948704.319 6  93971101.311 6     -2434.571          37.116    22948704.549 7  93971097.315 7     -2434.570          43.750  
G07  24422148.294 6 128339259.239 6       721.623          41.486    24422148.072 6 100004617.236 6       562.304          37.023    24422148.288 6 100004618.250 6       562.305          40.530  
G11  24605288.841 7 129301677.694 7      3510.921          45.631    24605289.856 5 100754542.781 5      2735.784          33.000                                                                  
G26  22533585.219 7 118414775.456 7     -3297.053          43.357    22533587.272 7  92271265.164 7     -2569.134          43.019    22533587.542 7  92271243.172 7     -2569.133          42.342  
G15  24856045.537 7 130619386.338 7       630.654          43.946    24856044.059 6 101781348.884 6       491.419          41.531    24856045.021 5 101781361.910 5       491.420          32.757  
G08  22246750.119 7 116907467.905 7      2612.315          42.741    22246752.973 7  91096729.090 7      2035.571          42.456    22246753.937 7  91096739.097 7      2035.571          45.727  
G16  20740921.699 7 108994276.972 7     -1567.021          45.006    20740920.825 6  84930602.014 6     -1221.054          40.976                                                                  
G21  21728211.307 7 114182512.189 7     -1949.876          47.423    21728209.595 6  88973384.431 6     -1519.385          40.307                                                                  
> 2020 06 11 13 28 10.0000000  0 11      -0.000000000000
G20  21283011.589 7 111842985.795 7       -38.448          45.438    21283011.662 6  87150379.188 6       -29.957          41.073                                                                  
G27  20453984.703 8 107486418.191 8       972.405          49.392    20453985.899 8  83755649.803 8       757.719          49.260    20453986.622 8  83755651.806 8       757.720          48.717  
G10  22057455.688 8 115912716.164 8      2284.207          48.131    22057456.941 8  90321602.350 8      1779.903          48.069    22057456.890 7  90321604.353 7      1779.902          46.803  
G18  22949298.272 7 120599354.210 7     -3124.849          44.560    22949298.914 6  93973536.009 6     -2434.950          39.049    22949299.125 7  93973532.018 7     -2434.949          45.103  
G07  24422011.115 6 128338538.303 6       720.221          41.621    24422010.860 6 100004055.464 6       561.211          38.733    24422011.101 7 100004056.483 7       561.213          42.115  
G11  24604620.777 7 129298167.003 7      3510.322          45.866    24604621.761 5 100751807.178 5      2735.317          34.621                                                                  
G26  22534212.686 7 118418072.860 7     -3297.680          43.643    22534214.733 7  92273834.570 7     -2569.622          43.414    22534215.016 7  92273812.579 7     -2569.621          43.928  
G15  24855925.616 7 130618756.146 7       629.609          44.211    24855924.126 6 101780857.831 6       490.607          41.423    24855925.109 5 101780870.853 5       490.606          35.334  
G08  22246253.037 7 116904855.778 7      2611.716          42.950    22246255.907 7  91094693.667 7      2035.104          42.337    22246256.865 7  91094703.674 7      2035.104          47.033  
G16  20741219.961 7 108995844.316 7     -1567.995          45.585    20741219.085 6  84931823.322 6     -1221.813          41.711                                                                  
G21  21728582.396 7 114184462.251 7     -1950.510          47.646    21728580.679 6  88974903.957 6     -1519.879          41.710                                                                  
> 2020 06 11 13 28 11.0000000  0 11      -0.000000000000
G20  21283019.066 7 111843025.150 7       -40.197          44.797    21283019.150 6  87150409.859 6       -31.320          40.875                                                                  
G27  20453799.827 8 107485446.691 8       970.608          48.831    20453801.025 8  83754892.792 8       756.320          48.721    20453801.749 7  83754894.795 7       756.320          47.958  
G10  22057021.150 7 115910432.647 7      2282.729          47.525    22057022.406 7  90319822.990 7      1778.752          47.555    22057022.340 7  90319824.993 7      1778.752          45.635  
G18  22949893.038 7 120602479.784 7     -3126.199          43.938    22949893.695 6  93975971.522 6     -2435.999          40.030    22949893.897 7  93975967.530 7     -2435.999          43.925  
G07  24421874.199 6 128337818.811 6       718.397          40.751    24421873.959 6 100003494.824 6       559.790          38.133    24421874.176 6 100003495.842 6       559.791          41.215  
G11  24603952.896 7 129294657.230 7      3509.155          45.004    24603953.892 5 100749072.287 5      2734.406          33.757                                                                  
G26  22534840.363 7 118421371.431 7     -3299.378          42.772    22534842.423 7  92276404.886 7     -2570.944          43.071    22534842.709 7  92276382.896 7     -2570.944          42.794  
G15  24855805.971 7 130618127.424 7       627.677          43.423    24855804.482 6 101780367.927 6       489.103          41.607    24855805.412 5 101780380.943 5       489.101          33.900  
G08  22245756.161 7 116902244.713 7      2610.284          42.015    22245759.037 6  91092659.074 6      2033.989          41.964    22245760.000 7  91092669.080 7      2033.989          45.813  
G16  20741518.496 7 108997413.107 7     -1569.705          44.709    20741517.612 7  84933045.759 7     -1223.146          42.585                                                                  
G21  21728953.706 7 114186413.421 7     -1951.891          46.979    21728951.988 6  88976424.352 6     -1520.953          41.968                                                                  
> 2020 06 11 13 28 12.0000000  0 11      -0.000000000000
G20  21283026.815 7 111843065.911 7       -41.590          44.117    21283026.904 7  87150441.621 7       -32.406          43.102                                                                  
G27  20453615.162 8 107484476.310 8       969.698          48.348    20453616.363 8  83754136.653 8       755.610          48.418    20453617.093 8  83754138.656 8       755.610          49.767  
G10  22056586.839 7 115908150.357 7      2281.605          47.101    22056588.099 7  90318044.585 7      1777.876          46.980    22056588.029 7  90318046.588 7      1777.876          47.523  
G18  22950487.971 7 120605606.263 7     -3127.058          43.343    22950488.659 6  93978407.744 6     -2436.670          40.795    22950488.829 7  93978403.750 7     -2436.669          45.997  
G07  24421737.533 6 128337100.615 6       717.517          40.201    24421737.255 6 100002935.196 6       559.105          39.525    24421737.509 7 100002936.208 7       559.105          43.609  
G11  24603285.152 7 129291148.243 7      3508.465          44.408    24603286.123 6 100746338.012 6      2733.870          37.172                                                                  
G26  22535468.237 7 118424671.004 7     -3300.307          42.279    22535470.306 7  92278975.982 7     -2571.668          42.298    22535470.609 7  92278953.991 7     -2571.668          44.670  
G15  24855686.590 7 130617500.004 7       626.541          42.599    24855685.088 7 101779879.033 7       488.217          42.559    24855686.003 6 101779892.050 6       488.216          36.601  
G08  22245259.464 6 116899634.570 6      2609.325          41.402    22245262.349 6  91090625.196 6      2033.242          40.942    22245263.305 7  91090635.204 7      2033.242          47.740  
G16  20741817.277 7 108998983.217 7     -1570.791          44.178    20741816.377 7  84934269.223 7     -1223.992          43.759                                                                  
G21  21729325.201 7 114188365.571 7     -1952.772          46.369    21729323.481 7  88977945.511 7     -1521.641          44.112                                                                  
> 2020 06 11 13 28 13.0000000  0 11      -0.000000000000
G20  21283034.821 7 111843108.019 7       -42.840          45.967    21283034.911 7  87150474.431 7       -33.381          42.409                                                                  
G27  20453430.709 8 107483507.025 8       969.013          49.735    20453431.909 8  83753381.364 8       755.075          49.817    20453432.643 8  83753383.366 8       755.075          49.874  
G10  22056152.747 8 115905869.244 8      2280.715          48.698    22056154.016 8  90316267.093 8      1777.181          48.843    22056153.952 7  90316269.099 7      1777.181          47.073  
G18  22951083.075 7 120608733.634 7     -3127.690          45.020    22951083.789 6  93980844.657 6     -2437.161          40.357    22951083.940 7  93980840.659 7     -2437.162          45.567  
G07  24421601.113 7 128336383.741 7       716.513          42.274    24421600.844 6 100002376.591 6       558.323          39.751    24421601.107 7 100002377.602 7       558.321          44.002  
G11  24602617.560 7 129287640.011 7      3508.024          46.231    24602618.537 5 100743604.333 5      2733.527          35.007                                                                  
G26  22536096.305 7 118427971.557 7     -3300.744          44.000    22536098.377 7  92281547.841 7     -2572.009          44.081    22536098.679 7  92281525.845 7     -2572.010          44.307  
G15  24855567.440 7 130616873.892 7       625.577          44.658    24855565.932 7 101779391.153 7       487.465          42.914    24855566.850 6 101779404.170 6       487.464          36.710  
G08  22244762.938 7 116897025.329 7      2609.125          43.453    22244765.831 7  91088592.020 7      2033.085          43.953    22244766.784 7  91088602.028 7      2033.085          47.376  
G16  20742116.309 7 109000554.636 7     -1571.832          45.958    20742115.394 7  84935493.703 7     -1224.804          42.966                                                                  
G21  21729696.876 8 114190318.675 8     -1953.501          48.060    21729695.156 7  88979467.406 7     -1522.209          43.576                                                                  
> 2020 06 11 13 28 14.0000000  0 11      -0.000000000000
G20  21283043.010 7 111843151.125 7       -42.703          44.523    21283043.113 7  87150508.016 7       -33.275          42.644                                                                  
G27  20453246.406 8 107482538.525 8       968.798          48.587    20453247.606 8  83752626.686 8       754.907          48.362    20453248.347 8  83752628.689 8       754.908          49.310  
G10  22055718.830 7 115903588.986 7      2280.321          47.234    22055720.093 7  90314490.268 7      1776.874          47.231    22055720.024 7  90314492.273 7      1776.874          46.771  
G18  22951678.267 7 120611861.512 7     -3127.381          43.513    22951678.993 6  93983281.959 6     -2436.921          40.232    22951679.156 7  93983277.965 7     -2436.921          45.255  
G07  24421464.896 6 128335667.788 6       716.153          40.254    24421464.605 6 100001818.707 6       558.042          40.131    24421464.868 7 100001819.715 7       558.041          43.008  
G11  24601950.045 7 129284132.200 7      3508.220          44.816    24601951.025 6 100740870.984 6      2733.684          36.968                                                                  
G26  22536724.481 7 118431272.770 7     -3300.988          42.415    22536726.571 6  92284120.211 6     -2572.199          41.845    22536726.879 7  92284098.215 7     -2572.200          43.878  
G15  24855448.459 7 130616248.722 7       625.388          43.211    24855446.965 7 101778904.006 7       487.317          42.881    24855447.915 5 101778917.023 5       487.316          35.862  
G08  22244266.548 6 116894416.672 6      2608.873          41.706    22244269.418 6  91086559.300 6      2032.888          41.744    22244270.374 7  91086569.307 7      2032.888          47.111  
G16  20742415.514 7 109002126.972 7     -1572.046          44.363    20742414.611 7  84936718.897 7     -1224.971          43.977                                                                  
G21  21730068.661 7 114192272.367 7     -1953.408          46.636    21730066.938 7  88980989.760 7     -1522.137          44.416                                                                  
> 2020 06 11 13 28 15.0000000  0 11      -0.000000000000
G20  21283051.094 7 111843193.690 7       -43.808          43.433    21283051.202 7  87150541.179 7       -34.137          42.535                                                                  
G27  20453061.938 7 107481569.185 7       968.501          47.836    20453063.141 7  83751871.356 7       754.676          47.660    20453063.892 8  83751873.359 8       754.676          48.906  
G10  22055284.755 7 115901307.973 7      2280.188          46.569    22055286.032 7  90312712.853 7      1776.770          46.326    22055285.958 7  90312714.860 7      1776.770          45.745  
G18  22952273.266 7 120614988.364 7     -3127.680          42.744    22952274.029 6  93985718.470 6     -2437.154          39.369    22952274.179 7  93985714.471 7     -2437.154          44.223  
G07  24421328.529 6 128334951.207 6       715.813          39.076    24421328.245 6 100001260.336 6       557.778          37.156    24421328.498 7 100001261.338 7       557.776          42.217  
G11  24601282.311 7 129280623.208 7      3508.462          43.957    24601283.298 5 100738136.709 5      2733.869          34.126                                                                  
G26  22537352.490 6 118434573.023 6     -3300.903          41.568    22537354.581 6  92286691.834 6     -2572.134          41.329    22537354.878 7  92286669.838 7     -2572.134          42.902  
G15  24855329.372 7 130615622.919 7       624.957          42.459    24855327.860 6 101778416.369 6       486.981          41.841    24855328.828 5 101778429.382 5       486.980          35.293  
G08  22243769.960 6 116891806.982 6      2608.745          40.977    22243772.814 6  91084525.775 6      2032.789          41.363    22243773.772 7  91084535.782 7      2032.789          46.058  
G16  20742714.598 7 109003698.691 7     -1572.767          43.452    20742713.686 7  84937943.609 7     -1225.534          43.023                                                                  
G21  21730440.262 7 114194225.095 7     -1953.491          45.963    21730438.541 7  88982511.367 7     -1522.201          42.900                                                                  
> 2020 06 11 13 28 16.0000000  0 11      -0.000000000000
G20  21283059.303 7 111843236.965 7       -43.319          45.065    21283059.433 7  87150574.900 7       -33.755          43.097                                                                  
G27  20452877.573 8 107480600.347 8       968.784          49.331    20452878.774 8  83751116.421 8       754.897          49.344    20452879.523 8  83751118.423 8       754.897          49.864  
G10  22054850.787 8 115899027.528 8      2280.481          48.096    22054852.076 7  90310935.887 7      1777.000          47.936    22054852.005 7  90310937.893 7      1777.000          47.316  
G18  22952868.320 7 120618115.465 7     -3126.909          44.429    22952869.093 6  93988155.167 6     -2436.554          40.773    22952869.255 7  93988151.173 7     -2436.553          45.910  
G07  24421192.307 6 128334235.329 6       715.603          41.178    24421192.040 6 100000702.511 6       557.613          40.433    24421192.264 7 100000703.511 7       557.612          43.854  
G11  24600614.609 7 129277114.375 7      3509.152          45.685    24600615.614 5 100735402.555 5      2734.408          35.045                                                                  
G26  22537980.582 7 118437873.661 7     -3300.448          43.413    22537982.665 7  92289263.758 7     -2571.779          43.258    22537982.964 7  92289241.761 7     -2571.780          44.519  
G15  24855210.396 7 130614997.813 7       625.045          44.134    24855208.903 7 101777929.276 7       487.050          44.212    24855209.887 6 101777942.284 6       487.048          36.567  
G08  22243273.395 7 116889197.563 7      2609.466          42.876    22243276.259 7  91082492.463 7      2033.351          42.588    22243277.218 7  91082502.469 7      2033.350          47.674  
G16  20743013.813 7 109005271.075 7     -1572.443          45.288    20743012.908 7  84939168.843 7     -1225.281          44.327                                                                  
G21  21730811.925 7 114196178.133 7     -1952.821          47.548    21730810.199 7  88984033.218 7     -1521.679          44.147                                                                  
> 2020 06 11 13 28 17.0000000  0 11      -0.000000000000
G20  21283067.414 7 111843279.698 7       -42.782          43.662    21283067.576 7  87150608.202 7       -33.336          42.458                                                                  
G27  20452693.059 8 107479630.709 8       969.592          48.021    20452694.253 7  83750360.860 7       755.527          47.923    20452695.006 8  83750362.862 8       755.527          48.788  
G10  22054416.690 7 115896746.391 7      2281.078          46.862    22054417.990 7  90309158.380 7      1777.465          46.749    22054417.914 7  90309160.385 7      1777.465          46.589  
G18  22953463.168 7 120621241.537 7     -3126.013          42.846    22953463.950 6  93990591.062 6     -2435.856          40.415    22953464.122 7  93990587.073 7     -2435.855          45.084  
G07  24421055.960 6 128333518.792 6       716.377          39.574    24421055.661 6 100000144.157 6       558.214          38.948    24421055.918 7 100000145.169 7       558.215          42.132  
G11  24599946.688 7 129273604.408 7      3510.129          44.114    24599947.690 5 100732667.518 5      2735.168          35.607                                                                  
G26  22538608.497 6 118441173.390 6     -3299.704          41.850    22538610.579 6  92291834.975 6     -2571.199          41.857    22538610.887 7  92291812.978 7     -2571.199          43.638  
G15  24855091.311 7 130614372.093 7       625.688          42.802    24855089.824 7 101777441.705 7       487.552          42.440    24855090.782 5 101777454.711 5       487.549          35.317  
G08  22242776.647 6 116886587.146 6      2610.470          41.204    22242779.513 6  91080458.375 6      2034.134          41.283    22242780.464 7  91080468.381 7      2034.134          46.909  
G16  20743312.914 7 109006842.842 7     -1572.012          43.681    20743312.017 7  84940393.595 7     -1224.945          43.157                                                                  
G21  21731183.410 7 114198130.245 7     -1952.061          46.112    21731181.688 7  88985554.345 7     -1521.086          43.697                                                                  
> 2020 06 11 13 28 18.0000000  0 11      -0.000000000000
G20  21283075.586 7 111843322.725 7       -43.374          45.785    21283075.761 7  87150641.732 7       -33.797          42.578                                                                  
G27  20452508.542 8 107478661.092 8       969.445          49.763    20452509.737 8  83749605.317 8       755.413          49.826    20452510.491 8  83749607.318 8       755.413          49.844  
G10  22053982.619 8 115894465.350 8      2280.841          48.739    22053983.924 8  90307380.948 8      1777.281          48.781    22053983.846 7  90307382.952 7      1777.280          46.823  
G18  22954057.990 7 120624367.413 7     -3125.924          45.088    22954058.798 6  93993026.815 6     -2435.785          39.731    22954058.960 7  93993022.822 7     -2435.785          45.377  
G07  24420919.651 6 128332802.490 6       715.932          41.733    24420919.402 6  99999586.006 6       557.869          39.993    24420919.630 7  99999587.009 7       557.868          43.818  
G11  24599278.711 7 129270094.112 7      3510.187          46.129    24599279.706 5 100729932.225 5      2735.214          35.623                                                                  
G26  22539236.407 7 118444473.021 7     -3299.651          44.170    22539238.473 7  92294406.116 7     -2571.157          43.846    22539238.788 7  92294384.120 7     -2571.158          43.797  
G15  24854972.273 7 130613746.592 7       625.294          45.029    24854970.789 7 101776954.299 7       487.243          43.216    24854971.735 6 101776967.309 6       487.243          37.038  
G08  22242279.864 7 116883976.550 7      2610.564          43.421    22242282.734 7  91078424.147 7      2034.207          42.752    22242283.687 7  91078434.153 7      2034.207          47.058  
G16  20743612.046 7 109008414.812 7     -1572.332          45.732    20743611.149 7  84941618.508 7     -1225.194          43.770                                                                  
G21  21731554.862 8 114200082.207 8     -1951.969          48.036    21731553.137 7  88987075.358 7     -1521.014          43.690                                                                  
> 2020 06 11 13 28 19.0000000  0 11      -0.000000000000
G20  21283083.790 7 111843365.910 7       -43.021          44.664    21283083.981 7  87150675.387 7       -33.521          44.242                                                                  
G27  20452324.016 8 107477691.407 8       969.811          48.913    20452325.207 8  83748849.721 8       755.699          48.805    20452325.966 8  83748851.721 8       755.698          50.316  
G10  22053548.546 7 115892184.322 7      2281.104          47.704    22053549.861 7  90305603.527 7      1777.486          47.740    22053549.776 8  90305605.530 8      1777.485          48.801  
G18  22954652.756 7 120627492.989 7     -3125.136          43.716    22954653.606 7  93995462.332 7     -2435.170          42.034    22954653.738 7  93995458.338 7     -2435.171          47.542  
G07  24420783.358 6 128332086.292 6       716.063          40.589    24420783.109 6  99999027.928 6       557.971          40.731    24420783.352 7  99999028.934 7       557.971          44.516  
G11  24598610.648 7 129266583.406 7      3510.900          44.964    24598611.659 6 100727196.618 6      2735.771          38.525                                                                  
G26  22539864.279 7 118447772.485 7     -3299.292          42.969    22539866.333 7  92296977.128 7     -2570.877          43.068    22539866.667 7  92296955.131 7     -2570.878          46.157  
G15  24854853.249 7 130613121.208 7       625.384          43.723    24854851.773 7 101776466.992 7       487.314          43.451    24854852.715 6 101776480.000 6       487.313          37.672  
G08  22241783.031 7 116881365.693 7      2611.226          42.114    22241785.906 7  91076389.716 7      2034.724          42.071    22241786.854 8  91076399.723 8      2034.724          48.931  
G16  20743911.205 7 109009986.901 7     -1572.020          44.535    20743910.316 7  84942843.515 7     -1224.950          44.778                                                                  
G21  21731926.272 7 114202033.950 7     -1951.614          47.022    21731924.545 7  88988596.199 7     -1520.737          45.598                                                                  
> 2020 06 11 13 28 20.0000000  0 11      -0.000000000000
G20  21283091.987 7 111843409.083 7       -42.757          45.683    21283092.204 7  87150709.030 7       -33.316          42.266                                                                  
G27  20452139.438 8 107476721.461 8       970.324          49.648    20452140.628 8  83748093.922 8       756.099          49.707    20452141.385 8  83748095.922 8       756.098          49.265  
G10  22053114.440 8 115889903.098 8      2281.719          48.616    22053115.760 8  90303825.952 8      1777.965          48.674    22053115.681 7  90303827.956 7      1777.965          46.016  
G18  22955247.427 7 120630618.062 7     -3124.443          44.926    22955248.289 6  93997897.457 6     -2434.630          36.927    22955248.432 7  93997893.460 7     -2434.630          44.283  
G07  24420647.052 6 128331369.998 6       716.832          41.427    24420646.781 6  99998469.773 6       558.569          37.497    24420647.054 7  99998470.785 7       558.570          42.868  
G11  24597942.464 7 129263072.069 7      3512.012          46.047    24597943.475 5 100724460.508 5      2736.634          33.888                                                                  
G26  22540492.068 7 118451071.533 7     -3298.654          44.170    22540494.119 7  92299547.813 7     -2570.381          44.397    22540494.448 7  92299525.819 7     -2570.380          42.962  
G15  24854734.230 7 130612495.736 7       625.912          44.957    24854732.733 7 101775979.615 7       487.726          42.410    24854733.697 6 101775992.625 6       487.726          37.088  
G08  22241286.116 7 116878754.368 7      2611.728          43.303    22241288.992 7  91074354.921 7      2035.115          43.401    22241289.940 7  91074364.928 7      2035.115          46.087  
G16  20744210.337 7 109011558.905 7     -1571.769          45.609    20744209.462 7  84944068.457 7     -1224.754          42.339                                                                  
G21  21732297.600 7 114203985.258 7     -1950.874          47.948    21732295.869 6  88990116.700 6     -1520.160          41.975                                                                  
> 2020 06 11 13 28 21.0000000  0 11      -0.000000000000
G20  21283100.141 7 111843452.009 7       -43.751          45.643    21283100.380 7  87150742.482 7       -34.090          43.240                                                                  
G27  20451954.760 8 107475750.993 8       970.057          49.741    20451955.949 8  83747337.715 8       755.890          49.797    20451956.708 8  83747339.715 8       755.890          50.008  
G10  22052680.252 8 115887621.456 8      2281.111          48.625    22052681.580 8  90302048.051 8      1777.491          48.884    22052681.502 8  90302050.057 8      1777.491          48.142  
G18  22955841.962 7 120633742.413 7     -3124.729          44.982    22955842.823 6  94000332.015 6     -2434.853          41.565    22955842.972 7  94000328.019 7     -2434.854          46.677  
G07  24420510.668 6 128330653.373 6       716.183          41.761    24420510.408 6  99997911.358 6       558.064          38.388    24420510.675 7  99997912.379 7       558.066          43.928  
G11  24597274.119 7 129259559.904 7      3511.869          46.064    24597275.123 5 100721723.750 5      2736.522          35.750                                                                  
G26  22541119.742 7 118454369.970 7     -3299.062          44.429    22541121.797 7  92302118.023 7     -2570.698          44.176    22541122.122 7  92302096.031 7     -2570.697          45.376  
G15  24854615.142 7 130611869.967 7       625.183          45.058    24854613.662 7 101775492.007 7       487.159          44.159    24854614.611 6 101775505.018 6       487.158          37.630  
G08  22240789.075 7 116876142.338 7      2611.473          43.220    22240791.937 7  91072319.575 7      2034.916          43.705    22240792.881 8  91072329.581 8      2034.916          48.309  
G16  20744509.408 7 109013130.557 7     -1572.256          45.689    20744508.547 7  84945293.124 7     -1225.133          43.755                                                                  
G21  21732668.811 7 114205935.908 7     -1951.228          47.987    21732667.079 7  88991636.689 7     -1520.436          44.373                                                                  
> 2020 06 11 13 28 22.0000000  0 11      -0.000000000000
G20  21283108.451 7 111843495.778 7       -44.595          42.832    21283108.709 7  87150776.591 7       -34.748          42.730                                                                  
G27  20451770.198 7 107474781.136 7       969.086          47.553    20451771.388 7  83746581.984 7       755.133          47.575    20451772.143 8  83746583.983 8       755.133          49.960  
G10  22052246.190 7 115885340.495 7      2280.342          46.147    22052247.530 7  90300270.681 7      1776.892          46.019    22052247.452 7  90300272.688 7      1776.892          47.548  
G18  22956436.574 7 120636867.116 7     -3125.265          42.103    22956437.431 6  94002766.847 6     -2435.271          41.801    22956437.582 7  94002762.852 7     -2435.272          46.108  
G07  24420374.435 6 128329937.573 6       715.023          38.562    24420374.171 6  99997353.596 6       557.159          37.807    24420374.480 7  99997354.616 7       557.162          43.792  
G11  24596605.834 7 129256047.966 7      3511.585          43.421    24596606.816 6 100718987.184 6      2736.302          37.072                                                                  
G26  22541747.512 6 118457668.871 6     -3299.512          41.659    22541749.563 6  92304688.598 6     -2571.049          41.189    22541749.883 7  92304666.605 7     -2571.048          44.982  
G15  24854496.209 7 130611244.978 7       624.315          42.066    24854494.729 6 101775005.005 6       486.481          41.846    24854495.636 6 101775018.014 6       486.481          37.283  
G08  22240292.136 6 116873530.733 6      2610.973          40.391    22240294.970 6  91070284.559 6      2034.526          40.205    22240295.907 7  91070294.566 7      2034.526          47.676  
G16  20744808.634 7 109014703.014 7     -1573.193          42.744    20744807.778 7  84946518.413 7     -1225.864          42.253                                                                  
G21  21733040.103 7 114207886.984 7     -1951.534          45.427    21733038.350 7  88993157.007 7     -1520.675          45.052                                                                  
> 2020 06 11 13 28 23.0000000  0 11      -0.000000000000
G20  21283117.073 7 111843541.193 7       -46.503          43.910    21283117.335 7  87150811.978 7       -36.235          42.585                                                                  
G27  20451585.909 8 107473812.682 8       967.525          48.353    20451587.095 8  83745827.344 8       753.917          48.648    20451587.847 8  83745829.344 8       753.917          49.023  
G10  22051812.412 7 115883061.017 7      2278.462          47.034    22051813.762 7  90298494.465 7      1775.427          47.100    22051813.689 7  90298496.474 7      1775.428          45.831  
G18  22957031.395 7 120639993.008 7     -3126.938          43.291    22957032.264 6  94005202.615 6     -2436.574          39.078    22957032.422 7  94005198.611 7     -2436.576          44.200  
G07  24420238.510 6 128329223.314 6       713.378          39.619    24420238.228 6  99996797.026 6       555.878          38.170    24420238.554 7  99996798.052 7       555.880          42.371  
G11  24595937.724 7 129252537.094 7      3510.109          44.260    24595938.680 5 100716251.444 5      2735.153          35.846                                                                  
G26  22542375.515 7 118460969.065 7     -3301.109          42.918    22542377.574 7  92307260.178 7     -2572.293          42.876    22542377.881 7  92307238.185 7     -2572.292          43.181  
G15  24854377.577 7 130610621.589 7       622.357          43.117    24854376.087 7 101774519.249 7       484.956          42.782    24854376.929 6 101774532.258 6       484.956          36.054  
G08  22239795.406 6 116870920.313 6      2609.568          41.413    22239798.221 6  91068250.466 6      2033.432          41.525    22239799.165 7  91068260.473 7      2033.432          45.999  
G16  20745108.170 7 109016277.057 7     -1574.949          43.803    20745107.301 7  84947744.936 7     -1227.234          43.672                                                                  
G21  21733411.634 7 114209839.323 7     -1953.167          46.542    21733409.879 7  88994678.312 7     -1521.947          43.023                                                                  
> 2020 06 11 13 28 24.0000000  0 11      -0.000000000000
G20  21283125.977 7 111843588.037 7       -47.428          43.866    21283126.232 6  87150848.483 6       -36.955          39.947                                                                  
G27  20451401.836 8 107472845.409 8       966.768          48.258    20451403.027 8  83745073.629 8       753.328          48.623    20451403.781 8  83745075.629 8       753.328          48.140  
G10  22051378.882 7 115880782.787 7      2277.792          46.902    22051380.232 7  90296719.226 7      1774.906          46.960    22051380.149 7  90296721.235 7      1774.906          45.398  
G18  22957626.401 7 120643119.841 7     -3127.257          43.142    22957627.274 6  94007639.102 6     -2436.824          37.399    22957627.455 7  94007635.104 7     -2436.823          44.067  
G07  24420102.837 6 128328510.452 6       712.196          39.375    24420102.615 6  99996241.553 6       554.959          36.104    24420102.911 6  99996242.578 6       554.960          41.304  
G11  24595269.786 7 129249027.065 7      3509.613          44.187    24595270.739 5 100713516.367 5      2734.767          34.997                                                                  
G26  22543003.709 7 118464270.321 7     -3301.576          42.689    22543005.792 7  92309832.587 7     -2572.656          42.584    22543006.088 7  92309810.595 7     -2572.656          43.036  
G15  24854259.202 7 130609999.578 7       621.338          43.122    24854257.729 7 101774034.572 7       484.163          42.009    24854258.596 5 101774047.579 5       484.162          34.490  
G08  22239298.858 6 116868310.884 6      2609.051          41.272    22239301.672 6  91066217.148 6      2033.029          41.594    22239302.600 7  91066227.155 7      2033.028          45.928  
G16  20745407.957 7 109017852.483 7     -1576.011          43.711    20745407.094 7  84948972.543 7     -1228.060          42.193                                                                  
G21  21733783.352 7 114211792.673 7     -1953.747          46.228    21733781.593 6  88996200.404 6     -1522.400          41.363                                                                  
> 2020 06 11 13 28 25.0000000  0 11      -0.000000000000
G20  21283135.085 7 111843636.022 7       -48.301          45.397    21283135.348 6  87150885.875 6       -37.636          41.516                                                                  
G27  20451217.933 8 107471879.009 8       966.273          49.634    20451219.126 8  83744320.592 8       752.942          49.620    20451219.872 8  83744322.592 8       752.942          49.330  
G10  22050945.531 8 115878505.542 8      2277.043          48.423    22050946.888 8  90294944.754 8      1774.322          48.625    22050946.801 7  90294946.764 7      1774.323          46.648  
G18  22958221.527 7 120646247.320 7     -3127.339          45.000    22958222.419 6  94010076.097 6     -2436.888          39.687    22958222.604 7  94010072.102 7     -2436.887          45.225  
G07  24419967.353 6 128327798.608 6       711.729          41.592    24419967.184 6  99995686.884 6       554.597          37.401    24419967.443 7  99995687.899 7       554.596          42.881  
G11  24594601.950 7 129245517.539 7      3509.614          46.026    24594602.924 5 100710781.676 5      2734.769          33.652                                                                  
G26  22543632.069 7 118467572.338 7     -3301.944          44.279    22543634.157 7  92312405.590 7     -2572.942          44.549    22543634.455 7  92312383.600 7     -2572.942          44.030  
G15  24854141.020 7 130609378.601 7       620.829          44.661    24854139.578 7 101773550.702 7       483.767          43.938    24854140.439 6 101773563.705 6       483.766          37.297  
G08  22238802.427 7 116865702.129 7      2608.729          43.365    22238805.242 7  91064184.355 7      2032.778          44.100    22238806.164 7  91064194.363 7      2032.778          46.869  
G16  20745707.951 7 109019428.935 7     -1576.688          45.657    20745707.072 7  84950200.953 7     -1228.586          43.533                                                                  
G21  21734155.201 7 114213746.731 7     -1953.985          47.875    21734153.429 7  88997723.045 7     -1522.585          43.270                                                                  
> 2020 06 11 13 28 26.0000000  0 11      -0.000000000000
G20  21283144.396 7 111843685.048 7       -49.372          46.662    21283144.686 7  87150924.076 7       -38.470          42.258                                                                  
G27  20451034.186 8 107470913.423 8       965.190          50.457    20451035.378 8  83743568.188 8       752.098          50.443    20451036.124 8  83743570.188 8       752.098          50.042  
G10  22050512.341 8 115876229.183 8      2275.955          49.453    22050513.714 8  90293170.970 8      1773.474          49.337    22050513.619 7  90293172.981 7      1773.475          47.396  
G18  22958816.770 7 120649375.375 7     -3128.219          46.167    22958817.639 6  94012513.537 6     -2437.574          38.863    22958817.849 7  94012509.545 7     -2437.573          46.196  
G07  24419832.077 7 128327087.794 7       710.256          43.174    24419831.897 6  99995133.010 6       553.450          39.602    24419832.181 7  99995134.023 7       553.449          43.954  
G11  24593934.207 7 129242008.506 7      3508.868          47.142    24593935.193 5 100708047.371 5      2734.188          34.383                                                                  
G26  22544260.551 7 118470875.042 7     -3302.878          45.762    22544262.647 7  92314979.126 7     -2573.670          45.808    22544262.933 7  92314957.136 7     -2573.669          45.472  
G15  24854023.053 7 130608758.652 7       619.516          45.957    24854021.598 7 101773067.627 7       482.744          43.383    24854022.475 6 101773080.625 6       482.742          37.989  
G08  22238306.131 7 116863093.984 7      2608.066          44.547    22238308.928 7  91062152.036 7      2032.261          44.381    22238309.849 7  91062162.044 7      2032.262          47.834  
G16  20746008.125 7 109021006.407 7     -1577.834          46.772    20746007.255 7  84951430.154 7     -1229.480          43.223                                                                  
G21  21734527.180 8 114215701.469 8     -1954.926          48.989    21734525.401 7  88999246.217 7     -1523.319          42.920                                                                  
> 2020 06 11 13 28 27.0000000  0 11      -0.000000000000
G20  21283153.943 7 111843735.336 7       -50.915          44.130    21283154.247 7  87150963.261 7       -39.674          42.673                                                                  
G27  20450850.625 8 107469948.837 8       964.000          48.572    20450851.817 8  83742816.563 8       751.170          48.019    20450852.568 8  83742818.564 8       751.170          49.060  
G10  22050079.367 7 115873953.908 7      2274.600          47.231    22050080.739 7  90291398.030 7      1772.418          47.018    22050080.639 7  90291400.042 7      1772.419          46.110  
G18  22959412.166 7 120652504.221 7     -3129.325          43.686    22959413.058 6  94014951.601 6     -2438.435          40.518    22959413.259 7  94014947.609 7     -2438.435          44.683  
G07  24419697.031 6 128326378.150 6       709.095          40.309    24419696.832 6  99994580.040 6       552.544          38.917    24419697.137 7  99994581.057 7       552.545          42.643  
G11  24593266.595 7 129238500.108 7      3508.074          44.544    24593267.543 6 100705313.559 6      2733.570          36.873                                                                  
G26  22544889.205 7 118474178.637 7     -3304.134          43.100    22544891.297 7  92317553.357 7     -2574.649          42.385    22544891.582 7  92317531.366 7     -2574.649          43.972  
G15  24853905.290 7 130608139.898 7       618.007          43.318    24853903.837 7 101772585.480 7       481.566          42.587    24853904.739 6 101772598.481 6       481.565          36.345  
G08  22237809.966 6 116860486.654 6      2607.036          41.965    22237812.771 6  91060120.353 6      2031.459          41.832    22237813.700 7  91060130.361 7      2031.459          46.456  
G16  20746308.540 7 109022585.058 7     -1579.225          44.163    20746307.662 7  84952660.272 7     -1230.563          42.969                                                                  
G21  21734899.319 7 114217657.031 7     -1956.076          46.669    21734897.549 7  89000770.034 7     -1524.214          43.861                                                                  
> 2020 06 11 13 28 28.0000000  0 11      -0.000000000000
G20  21283163.685 7 111843786.675 7       -52.212          45.373    21283164.018 7  87151003.266 7       -40.684          42.072                                                                  
G27  20450667.216 8 107468985.041 8       963.190          49.559    20450668.409 8  83742065.551 8       750.538          49.543    20450669.168 8  83742067.553 8       750.538          49.047  
G10  22049646.558 8 115871679.491 8      2273.707          48.255    22049647.932 8  90289625.755 8      1771.721          48.294    22049647.830 7  90289627.768 7      1771.722          46.569  
G18  22960007.670 7 120655633.612 7     -3129.963          44.978    22960008.566 6  94017390.087 6     -2438.934          37.609    22960008.769 7  94017386.094 7     -2438.932          45.329  
G07  24419562.169 6 128325669.501 6       707.807          41.566    24419561.960 6  99994027.845 6       551.539          39.472    24419562.273 7  99994028.864 7       551.540          42.467  
G11  24592599.072 7 129234992.163 7      3507.521          45.785    24592599.987 5 100702580.105 5      2733.140          35.789                                                                  
G26  22545517.992 7 118477482.894 7     -3304.698          44.242    22545520.082 7  92320128.101 7     -2575.089          44.423    22545520.361 7  92320106.109 7     -2575.089          44.641  
G15  24853787.727 7 130607522.108 7       617.157          44.665    24853786.274 7 101772104.084 7       480.904          43.335    24853787.150 6 101772117.089 6       480.904          36.229  
G08  22237313.932 7 116857879.914 7      2606.199          43.253    22237316.726 7  91058089.128 7      2030.806          42.759    22237317.661 7  91058099.135 7      2030.806          47.097  
G16  20746609.143 7 109024164.675 7     -1580.421          45.486    20746608.260 6  84953891.142 6     -1231.496          41.873                                                                  
G21  21735271.580 7 114219613.234 7     -1956.873          47.709    21735269.808 7  89002294.348 7     -1524.835          42.442                                                                  
> 2020 06 11 13 28 29.0000000  0 11      -0.000000000000
G20  21283173.635 7 111843839.057 7       -53.493          45.888    21283173.982 6  87151044.086 6       -41.682          40.907                                                                  
G27  20450483.971 8 107468022.073 8       961.963          49.920    20450485.160 8  83741315.188 8       749.582          49.845    20450485.924 8  83741317.190 8       749.583          48.822  
G10  22049213.906 8 115869405.975 8      2272.465          48.719    22049215.296 8  90287854.187 8      1770.754          48.370    22049215.202 7  90287856.197 7      1770.754          46.020  
G18  22960603.279 7 120658763.592 7     -3130.932          45.453    22960604.196 6  94019829.028 6     -2439.688          38.111    22960604.394 7  94019825.040 7     -2439.687          44.506  
G07  24419427.500 6 128324961.806 6       706.862          41.636    24419427.298 6  99993476.393 6       550.803          36.748    24419427.603 7  99993477.415 7       550.804          42.401  
G11  24591931.625 7 129231484.695 7      3506.504          46.259    24591932.530 5 100699847.017 5      2732.346          34.028                                                                  
G26  22546146.915 7 118480787.839 7     -3305.654          44.758    22546148.996 7  92322703.383 7     -2575.833          44.531    22546149.273 7  92322681.389 7     -2575.834          43.767  
G15  24853670.359 7 130606905.334 7       615.773          44.959    24853668.897 6 101771623.484 6       479.826          40.974    24853669.772 5 101771636.490 5       479.826          35.486  
G08  22236818.030 7 116855273.776 7      2605.196          43.814    22236820.799 7  91056058.371 7      2030.024          43.903    22236821.733 7  91056068.378 7      2030.024          46.395  
G16  20746909.926 7 109025745.290 7     -1581.688          46.006    20746909.041 6  84955122.791 6     -1232.483          41.272                                                                  
G21  21735643.967 8 114221570.064 8     -1957.615          48.163    21735642.183 6  89003819.153 6     -1525.413          41.568                                                                  
> 2020 06 11 13 28 30.0000000  0 11      -0.000000000000
G20  21283183.868 7 111843892.908 7       -54.500          44.657    21283184.214 7  87151086.051 7       -42.466          42.403                                                                  
G27  20450300.948 8 107467060.290 8       961.271          49.067    20450302.137 8  83740565.747 8       749.044          49.054    20450302.904 8  83740567.749 8       749.044          49.324  
G10  22048781.511 7 115867133.759 7      2271.637          47.870    22048782.910 7  90286083.631 7      1770.109          47.747    22048782.820 7  90286085.639 7      1770.108          46.821  
G18  22961199.077 7 120661894.535 7     -3131.375          44.217    22961199.988 6  94022268.733 6     -2440.032          40.020    22961200.195 7  94022264.736 7     -2440.032          45.311  
G07  24419293.083 6 128324255.534 6       705.610          40.679    24419292.872 6  99992926.052 6       549.826          38.757    24419293.201 7  99992927.075 7       549.828          43.146  
G11  24591264.347 7 129227978.082 7      3506.061          45.325    24591265.244 6 100697114.587 6      2731.998          37.137                                                                  
G26  22546776.046 7 118484093.904 7     -3306.608          43.554    22546778.124 7  92325279.540 7     -2576.577          43.305    22546778.393 7  92325257.542 7     -2576.578          44.677  
G15  24853553.252 7 130606289.948 7       614.721          43.960    24853551.783 7 101771143.969 7       479.007          42.939    24853552.687 6 101771156.974 6       479.007          36.315  
G08  22236322.287 7 116852668.666 7      2604.494          42.836    22236325.066 7  91054028.417 7      2029.478          43.035    22236325.998 7  91054038.424 7      2029.478          47.136  
G16  20747210.964 7 109027327.285 7     -1582.734          44.931    20747210.081 7  84956355.514 7     -1233.298          43.168                                                                  
G21  21736016.545 7 114223527.976 7     -1958.480          47.128    21736014.760 7  89005344.801 7     -1526.087          43.587                                                                  
